time.ofweek-gps[ms],pos.enu-e[m],pos.enu-n[m],pos.enu-u[m],pos.rmse-e[m],pos.rmse-n[m],pos.rmse-u[m],spd.horiz[m/s],spd.course[deg],ori.yaw[rad],ori.pitch[rad],ori.roll[rad],pos.flags2[-],pos.latitude[deg],pos.longitude[deg],pos.height[m],pos.svs-used[-],spd.vert[m/s],ori.flags[-],ori.svs-used[-],ori.mode[-],ori.range[m],ori.var-yaw[rad^2],ori.var-pitch[rad^2],ori.var-roll[rad^2],ori.var-range[m^2]
312152480,NaN,NaN,NaN,0.0064,0.0151,0.0207,0.253,3.3254,2.9499,-0.0303,0.0000,7,49.2274360,16.5749842,328.544,9,-0.430,22,9,3,0.996,0.00002,0.00014,0.00000,0.0001
312152500,NaN,NaN,NaN,0.0064,0.0151,0.0207,0.021,3.7219,2.9508,-0.0276,0.0000,7,49.2274360,16.5749842,328.544,9,0.008,22,9,3,0.997,0.00002,0.00014,0.00000,0.0001
312152520,NaN,NaN,NaN,0.0064,0.0151,0.0207,0.226,6.0059,2.9517,-0.0255,0.0000,7,49.2274360,16.5749842,328.547,9,0.188,22,9,3,0.995,0.00002,0.00014,0.00000,0.0001
312152540,NaN,NaN,NaN,0.0064,0.0151,0.0207,0.204,2.8036,2.9506,-0.0265,0.0000,7,49.2274360,16.5749842,328.543,9,-0.322,22,9,3,0.994,0.00002,0.00014,0.00000,0.0001
312152560,NaN,NaN,NaN,0.0064,0.0151,0.0207,0.154,0.1118,2.9486,-0.0285,0.0000,7,49.2274360,16.5749842,328.543,9,0.236,22,9,3,0.993,0.00003,0.00014,0.00000,0.0001
312152580,NaN,NaN,NaN,0.0061,0.0146,0.0196,0.090,0.2628,2.9491,-0.0257,0.0000,7,49.2274360,16.5749841,328.542,9,0.118,22,9,3,0.992,0.00003,0.00014,0.00000,0.0001
312152600,NaN,NaN,NaN,0.0061,0.0146,0.0196,0.014,3.6105,2.9494,-0.0239,0.0000,7,49.2274360,16.5749841,328.543,9,0.013,22,9,3,0.993,0.00003,0.00014,0.00000,0.0001
312152620,NaN,NaN,NaN,0.0061,0.0146,0.0196,0.048,0.5278,2.9484,-0.0236,0.0000,7,49.2274360,16.5749842,328.541,9,-0.012,22,9,3,0.991,0.00003,0.00014,0.00000,0.0001
312152640,NaN,NaN,NaN,0.0061,0.0146,0.0196,0.132,3.5524,2.9505,-0.0268,0.0000,7,49.2274360,16.5749841,328.541,9,-0.049,22,9,3,0.994,0.00002,0.00014,0.00000,0.0001
312152660,NaN,NaN,NaN,0.0061,0.0146,0.0196,0.069,5.5254,2.9488,-0.0271,0.0000,7,49.2274360,16.5749841,328.538,9,-0.226,22,9,3,0.994,0.00003,0.00014,0.00000,0.0001
312152680,NaN,NaN,NaN,0.0061,0.0146,0.0196,0.073,1.7451,2.9504,-0.0281,0.0000,7,49.2274360,16.5749841,328.537,9,-0.015,22,9,3,0.992,0.00003,0.00014,0.00000,0.0001
312152700,NaN,NaN,NaN,0.0061,0.0146,0.0196,0.050,3.4029,2.9522,-0.0268,0.0000,7,49.2274360,16.5749841,328.539,9,0.023,22,9,3,0.992,0.00003,0.00014,0.00000,0.0001
312152720,NaN,NaN,NaN,0.0061,0.0146,0.0196,0.132,2.7436,2.9499,-0.0264,0.0000,7,49.2274360,16.5749841,328.538,9,-0.105,22,9,3,0.992,0.00003,0.00014,0.00000,0.0001
312152740,NaN,NaN,NaN,0.0061,0.0146,0.0196,0.055,5.2393,2.9507,-0.0261,0.0000,7,49.2274360,16.5749841,328.537,9,-0.171,22,9,3,0.992,0.00003,0.00014,0.00000,0.0001
312152760,NaN,NaN,NaN,0.0061,0.0146,0.0196,0.164,0.9555,2.9473,-0.0258,0.0000,7,49.2274360,16.5749842,328.537,9,0.102,22,9,3,0.991,0.00003,0.00014,0.00000,0.0001
312152780,NaN,NaN,NaN,0.0061,0.0146,0.0196,0.109,5.5391,2.9501,-0.0243,0.0000,7,49.2274360,16.5749841,328.540,9,0.208,22,9,3,0.992,0.00003,0.00014,0.00000,0.0001
312152800,NaN,NaN,NaN,0.0061,0.0146,0.0196,0.039,3.3956,2.9509,-0.0281,0.0000,7,49.2274360,16.5749841,328.536,9,0.017,22,9,3,0.994,0.00003,0.00014,0.00000,0.0001
312152820,NaN,NaN,NaN,0.0061,0.0146,0.0196,0.060,1.6606,2.9499,-0.0292,0.0000,7,49.2274360,16.5749841,328.538,9,0.129,22,9,3,0.994,0.00003,0.00014,0.00000,0.0001
312152840,NaN,NaN,NaN,0.0061,0.0146,0.0196,0.196,3.2200,2.9495,-0.0291,0.0000,7,49.2274360,16.5749841,328.539,9,-0.138,22,9,3,0.995,0.00003,0.00014,0.00000,0.0001
312152860,NaN,NaN,NaN,0.0061,0.0146,0.0196,0.292,6.0978,2.9509,-0.0290,0.0000,7,49.2274360,16.5749841,328.543,9,0.376,22,9,3,0.995,0.00002,0.00014,0.00000,0.0001
312152880,NaN,NaN,NaN,0.0061,0.0146,0.0196,0.144,3.1231,2.9516,-0.0307,0.0000,7,49.2274360,16.5749841,328.539,9,-0.225,22,9,3,0.996,0.00002,0.00014,0.00000,0.0001
312152900,NaN,NaN,NaN,0.0061,0.0146,0.0196,0.055,2.9933,2.9487,-0.0266,0.0000,7,49.2274360,16.5749841,328.540,9,0.026,22,9,3,0.997,0.00002,0.00014,0.00000,0.0001
312152920,NaN,NaN,NaN,0.0061,0.0146,0.0196,0.135,4.7758,2.9521,-0.0309,0.0000,7,49.2274360,16.5749841,328.538,9,-0.239,22,9,3,0.995,0.00002,0.00014,0.00000,0.0001
312152940,NaN,NaN,NaN,0.0061,0.0146,0.0196,0.139,0.7169,2.9499,-0.0266,0.0000,7,49.2274360,16.5749841,328.543,9,0.324,22,9,3,0.992,0.00003,0.00014,0.00000,0.0001
312152960,NaN,NaN,NaN,0.0061,0.0146,0.0196,0.139,3.1797,2.9486,-0.0270,0.0000,7,49.2274360,16.5749841,328.540,9,-0.154,22,9,3,0.992,0.00003,0.00014,0.00000,0.0001
312152980,NaN,NaN,NaN,0.0061,0.0146,0.0196,0.017,5.8358,2.9488,-0.0270,0.0000,7,49.2274360,16.5749841,328.537,9,-0.019,22,9,3,0.993,0.00003,0.00014,0.00000,0.0001
312153000,NaN,NaN,NaN,0.0064,0.0150,0.0204,0.043,3.1111,2.9511,-0.0273,0.0000,7,49.2274360,16.5749841,328.543,9,0.005,22,9,3,0.992,0.00003,0.00014,0.00000,0.0001
312153020,NaN,NaN,NaN,0.0064,0.0150,0.0204,0.119,2.2662,2.9495,-0.0259,0.0000,7,49.2274360,16.5749841,328.541,9,-0.264,22,9,3,0.994,0.00003,0.00014,0.00000,0.0001
312153040,NaN,NaN,NaN,0.0064,0.0150,0.0204,0.133,3.6376,2.9514,-0.0269,0.0000,7,49.2274360,16.5749841,328.537,9,-0.109,22,9,3,0.994,0.00002,0.00014,0.00000,0.0001
312153060,NaN,NaN,NaN,0.0064,0.0150,0.0204,0.056,6.0732,2.9501,-0.0232,0.0000,7,49.2274360,16.5749841,328.540,9,0.238,22,9,3,0.994,0.00003,0.00014,0.00000,0.0001
312153080,NaN,NaN,NaN,0.0064,0.0150,0.0204,0.292,0.2535,2.9496,-0.0272,0.0000,7,49.2274360,16.5749841,328.538,9,0.136,22,9,3,0.993,0.00003,0.00014,0.00000,0.0001
312153100,NaN,NaN,NaN,0.0064,0.0150,0.0204,0.055,3.0573,2.9503,-0.0264,0.0000,7,49.2274360,16.5749841,328.541,9,0.018,22,9,3,0.995,0.00002,0.00014,0.00000,0.0001
312153120,NaN,NaN,NaN,0.0064,0.0150,0.0204,0.043,5.8302,2.9510,-0.0277,0.0000,7,49.2274360,16.5749841,328.541,9,0.145,22,9,3,0.995,0.00002,0.00014,0.00000,0.0001
312153140,NaN,NaN,NaN,0.0064,0.0150,0.0204,0.051,5.9488,2.9494,-0.0248,0.0000,7,49.2274360,16.5749841,328.543,9,-0.109,22,9,3,0.992,0.00003,0.00014,0.00000,0.0001
312153160,NaN,NaN,NaN,0.0064,0.0150,0.0204,0.052,2.4645,2.9498,-0.0260,0.0000,7,49.2274360,16.5749841,328.541,9,0.047,22,9,3,0.993,0.00003,0.00014,0.00000,0.0001
312153180,NaN,NaN,NaN,0.0064,0.0150,0.0204,0.173,3.3697,2.9508,-0.0257,0.0000,7,49.2274360,16.5749842,328.538,9,-0.276,22,9,3,0.994,0.00003,0.00014,0.00000,0.0001
312153200,NaN,NaN,NaN,0.0064,0.0150,0.0204,0.037,3.1216,2.9516,-0.0261,0.0000,7,49.2274360,16.5749841,328.537,9,0.019,22,9,3,0.994,0.00002,0.00014,0.00000,0.0001
312153220,NaN,NaN,NaN,0.0064,0.0150,0.0204,0.192,0.2773,2.9491,-0.0257,0.0000,7,49.2274360,16.5749841,328.542,9,0.305,22,9,3,0.994,0.00003,0.00014,0.00000,0.0001
312153240,NaN,NaN,NaN,0.0064,0.0150,0.0204,0.127,2.8182,2.9486,-0.0259,0.0000,7,49.2274360,16.5749841,328.538,9,-0.282,22,9,3,0.995,0.00003,0.00014,0.00000,0.0001
312153260,NaN,NaN,NaN,0.0064,0.0150,0.0204,0.055,2.9103,2.9483,-0.0256,0.0000,7,49.2274360,16.5749842,328.538,9,-0.097,22,9,3,0.994,0.00003,0.00014,0.00000,0.0001
312153280,NaN,NaN,NaN,0.0064,0.0150,0.0204,0.101,5.7628,2.9492,-0.0256,0.0000,7,49.2274360,16.5749841,328.539,9,0.106,22,9,3,0.992,0.00003,0.00014,0.00000,0.0001
312153300,NaN,NaN,NaN,0.0064,0.0150,0.0204,0.023,3.6304,2.9503,-0.0269,0.0000,7,49.2274360,16.5749841,328.538,9,-0.003,22,9,3,0.992,0.00003,0.00014,0.00000,0.0001
312153320,NaN,NaN,NaN,0.0064,0.0150,0.0204,0.149,2.7175,2.9497,-0.0262,0.0000,7,49.2274360,16.5749841,328.540,9,-0.068,22,9,3,0.996,0.00002,0.00014,0.00000,0.0001
312153340,NaN,NaN,NaN,0.0064,0.0150,0.0204,0.083,4.5743,2.9501,-0.0285,0.0000,7,49.2274360,16.5749841,328.539,9,-0.024,22,9,3,0.995,0.00002,0.00014,0.00000,0.0001
312153360,NaN,NaN,NaN,0.0064,0.0150,0.0204,0.129,0.3202,2.9508,-0.0260,0.0000,7,49.2274360,16.5749841,328.543,9,0.346,22,9,3,0.993,0.00003,0.00014,0.00000,0.0001
312153380,NaN,NaN,NaN,0.0064,0.0150,0.0204,0.055,3.8454,2.9501,-0.0284,0.0000,7,49.2274360,16.5749841,328.540,9,-0.396,22,9,3,0.994,0.00003,0.00014,0.00000,0.0001
312153400,NaN,NaN,NaN,0.0064,0.0150,0.0204,0.017,4.0228,2.9512,-0.0282,0.0000,7,49.2274360,16.5749841,328.540,9,0.003,22,9,3,0.994,0.00002,0.00014,0.00000,0.0001
312153420,NaN,NaN,NaN,0.0064,0.0150,0.0204,0.072,3.0884,2.9508,-0.0253,0.0000,7,49.2274360,16.5749841,328.537,9,0.029,22,9,3,0.994,0.00003,0.00014,0.00000,0.0001
312153440,NaN,NaN,NaN,0.0064,0.0150,0.0204,0.144,0.0449,2.9512,-0.0276,0.0000,7,49.2274360,16.5749841,328.538,9,-0.017,22,9,3,0.993,0.00003,0.00014,0.00000,0.0001
312153460,NaN,NaN,NaN,0.0064,0.0150,0.0204,0.090,1.1478,2.9488,-0.0235,0.0000,7,49.2274360,16.5749841,328.539,9,0.063,22,9,3,0.991,0.00003,0.00014,0.00000,0.0001
312153480,NaN,NaN,NaN,0.0064,0.0150,0.0204,0.072,3.2737,2.9513,-0.0248,0.0000,7,49.2274360,16.5749841,328.539,9,0.097,22,9,3,0.994,0.00003,0.00014,0.00000,0.0001
312153500,NaN,NaN,NaN,0.0064,0.0150,0.0204,0.021,0.0325,2.9482,-0.0240,0.0000,7,49.2274360,16.5749842,328.542,9,0.056,22,9,3,0.993,0.00003,0.00014,0.00000,0.0001
312153520,NaN,NaN,NaN,0.0064,0.0150,0.0204,0.130,5.4236,2.9489,-0.0272,0.0000,7,49.2274360,16.5749841,328.537,9,-0.186,22,9,3,0.991,0.00003,0.00014,0.00000,0.0001
312153540,NaN,NaN,NaN,0.0064,0.0150,0.0204,0.271,3.1367,2.9486,-0.0296,0.0000,7,49.2274360,16.5749841,328.536,9,-0.182,22,9,3,0.994,0.00003,0.00014,0.00000,0.0001
312153560,NaN,NaN,NaN,0.0064,0.0150,0.0204,0.088,5.2346,2.9520,-0.0256,0.0000,7,49.2274360,16.5749841,328.537,9,0.317,22,9,3,0.994,0.00002,0.00014,0.00000,0.0001
312153580,NaN,NaN,NaN,0.0064,0.0150,0.0204,0.098,1.9707,2.9509,-0.0268,0.0000,7,49.2274360,16.5749841,328.538,9,-0.105,22,9,3,0.996,0.00002,0.00014,0.00000,0.0001
312153600,NaN,NaN,NaN,0.0064,0.0150,0.0204,0.023,0.0175,2.9512,-0.0278,0.0000,7,49.2274360,16.5749841,328.535,9,0.052,22,9,3,0.996,0.00002,0.00014,0.00000,0.0001
312153620,NaN,NaN,NaN,0.0064,0.0150,0.0204,0.005,0.5707,2.9503,-0.0303,0.0000,7,49.2274360,16.5749841,328.532,9,0.053,22,9,3,0.996,0.00002,0.00014,0.00000,0.0001
312153640,NaN,NaN,NaN,0.0064,0.0150,0.0204,0.022,4.3968,2.9522,-0.0265,0.0000,7,49.2274360,16.5749841,328.534,9,0.082,22,9,3,0.996,0.00002,0.00014,0.00000,0.0001
312153660,NaN,NaN,NaN,0.0064,0.0150,0.0204,0.077,2.5859,2.9504,-0.0307,0.0000,7,49.2274360,16.5749841,328.534,9,-0.189,22,9,3,0.998,0.00002,0.00014,0.00000,0.0001
312153680,NaN,NaN,NaN,0.0064,0.0150,0.0204,0.090,4.1646,2.9524,-0.0286,0.0000,7,49.2274360,16.5749841,328.535,9,0.005,22,9,3,0.995,0.00002,0.00014,0.00000,0.0001
312153700,NaN,NaN,NaN,0.0064,0.0150,0.0204,0.038,0.1421,2.9535,-0.0279,0.0000,7,49.2274360,16.5749841,328.538,9,0.064,22,9,3,0.993,0.00002,0.00014,0.00000,0.0001
312153720,NaN,NaN,NaN,0.0064,0.0150,0.0204,0.054,3.0909,2.9517,-0.0261,0.0000,7,49.2274360,16.5749841,328.537,9,-0.190,22,9,3,0.994,0.00002,0.00014,0.00000,0.0001
312153740,NaN,NaN,NaN,0.0064,0.0150,0.0204,0.044,2.7448,2.9501,-0.0270,0.0000,7,49.2274360,16.5749841,328.535,9,0.082,22,9,3,0.993,0.00003,0.00014,0.00000,0.0001
312153760,NaN,NaN,NaN,0.0064,0.0150,0.0204,0.175,5.9462,2.9519,-0.0241,0.0000,7,49.2274360,16.5749841,328.534,9,0.194,22,9,3,0.991,0.00003,0.00014,0.00000,0.0001
312153780,NaN,NaN,NaN,0.0061,0.0146,0.0196,0.108,0.6233,2.9517,-0.0231,0.0000,7,49.2274360,16.5749842,328.536,9,0.109,22,9,3,0.991,0.00003,0.00014,0.00000,0.0001
312153800,NaN,NaN,NaN,0.0061,0.0146,0.0196,0.031,0.1656,2.9514,-0.0256,0.0000,7,49.2274360,16.5749841,328.533,9,0.053,22,9,3,0.993,0.00003,0.00014,0.00000,0.0001
312153820,NaN,NaN,NaN,0.0061,0.0146,0.0196,0.039,2.1211,2.9518,-0.0272,0.0000,7,49.2274360,16.5749842,328.533,9,0.209,22,9,3,0.994,0.00002,0.00014,0.00000,0.0001
312153840,NaN,NaN,NaN,0.0061,0.0146,0.0196,0.185,6.0578,2.9529,-0.0288,0.0000,7,49.2274360,16.5749842,328.534,9,0.125,22,9,3,0.994,0.00002,0.00014,0.00000,0.0001
312153860,NaN,NaN,NaN,0.0061,0.0146,0.0196,0.156,2.7208,2.9493,-0.0271,0.0000,7,49.2274360,16.5749842,328.533,9,-0.179,22,9,3,0.995,0.00002,0.00014,0.00000,0.0001
312153880,NaN,NaN,NaN,0.0061,0.0146,0.0196,0.095,5.7629,2.9512,-0.0250,0.0000,7,49.2274360,16.5749841,328.536,9,0.047,22,9,3,0.992,0.00003,0.00014,0.00000,0.0001
312153900,NaN,NaN,NaN,0.0061,0.0146,0.0196,0.025,1.6314,2.9506,-0.0245,0.0000,7,49.2274360,16.5749842,328.538,9,0.022,22,9,3,0.992,0.00003,0.00014,0.00000,0.0001
312153920,NaN,NaN,NaN,0.0061,0.0146,0.0196,0.252,3.3813,2.9512,-0.0248,0.0000,7,49.2274360,16.5749841,328.535,9,-0.281,22,9,3,0.993,0.00003,0.00014,0.00000,0.0001
312153940,NaN,NaN,NaN,0.0061,0.0146,0.0196,0.046,5.2780,2.9510,-0.0235,0.0000,7,49.2274360,16.5749841,328.535,9,0.012,22,9,3,0.993,0.00003,0.00014,0.00000,0.0001
312153960,NaN,NaN,NaN,0.0061,0.0146,0.0196,0.105,0.4852,2.9508,-0.0255,0.0000,7,49.2274360,16.5749841,328.534,9,0.121,22,9,3,0.991,0.00003,0.00014,0.00000,0.0001
312153980,NaN,NaN,NaN,0.0061,0.0146,0.0196,0.127,3.2299,2.9511,-0.0285,0.0000,7,49.2274360,16.5749841,328.534,9,-0.027,22,9,3,0.995,0.00002,0.00014,0.00000,0.0001
312154000,NaN,NaN,NaN,0.0064,0.0149,0.0204,0.015,1.9608,2.9518,-0.0259,0.0000,7,49.2274360,16.5749841,328.535,9,0.006,22,9,3,0.995,0.00002,0.00014,0.00000,0.0001
312154020,NaN,NaN,NaN,0.0064,0.0149,0.0204,0.037,5.8691,2.9531,-0.0256,0.0000,7,49.2274360,16.5749841,328.534,9,0.121,22,9,3,0.997,0.00002,0.00014,0.00000,0.0001
312154040,NaN,NaN,NaN,0.0064,0.0149,0.0204,0.137,2.7499,2.9506,-0.0275,0.0000,7,49.2274360,16.5749842,328.533,9,-0.263,22,9,3,0.997,0.00002,0.00014,0.00000,0.0001
312154060,NaN,NaN,NaN,0.0064,0.0149,0.0204,0.322,5.9912,2.9525,-0.0258,0.0000,7,49.2274360,16.5749841,328.535,9,0.173,22,9,3,0.994,0.00002,0.00014,0.00000,0.0001
312154080,NaN,NaN,NaN,0.0064,0.0149,0.0204,0.165,0.6781,2.9494,-0.0261,0.0000,7,49.2274360,16.5749841,328.537,9,0.099,22,9,3,0.993,0.00003,0.00014,0.00000,0.0001
312154100,NaN,NaN,NaN,0.0064,0.0149,0.0204,0.027,2.2962,2.9504,-0.0256,0.0000,7,49.2274360,16.5749842,328.540,9,0.018,22,9,3,0.994,0.00003,0.00014,0.00000,0.0001
312154120,NaN,NaN,NaN,0.0064,0.0149,0.0204,0.057,2.9481,2.9501,-0.0297,0.0000,7,49.2274360,16.5749842,328.538,9,-0.147,22,9,3,0.995,0.00002,0.00014,0.00000,0.0001
312154140,NaN,NaN,NaN,0.0064,0.0149,0.0204,0.080,5.5514,2.9512,-0.0267,0.0000,7,49.2274360,16.5749841,328.540,9,0.271,22,9,3,0.996,0.00002,0.00014,0.00000,0.0001
312154160,NaN,NaN,NaN,0.0064,0.0149,0.0204,0.075,3.7523,2.9515,-0.0285,0.0000,7,49.2274360,16.5749841,328.535,9,-0.504,22,9,3,0.995,0.00002,0.00014,0.00000,0.0001
312154180,NaN,NaN,NaN,0.0064,0.0149,0.0204,0.102,1.3761,2.9494,-0.0286,0.0000,7,49.2274360,16.5749842,328.536,9,0.454,22,9,3,0.996,0.00002,0.00014,0.00000,0.0001
312154200,NaN,NaN,NaN,0.0064,0.0149,0.0204,0.021,2.7207,2.9516,-0.0267,0.0000,7,49.2274360,16.5749842,328.534,9,-0.010,22,9,3,0.993,0.00003,0.00014,0.00000,0.0001
312154220,NaN,NaN,NaN,0.0064,0.0149,0.0204,0.071,1.2077,2.9496,-0.0246,0.0000,7,49.2274360,16.5749842,328.534,9,-0.081,22,9,3,0.992,0.00003,0.00014,0.00000,0.0001
312154240,NaN,NaN,NaN,0.0064,0.0149,0.0204,0.075,5.6461,2.9523,-0.0222,0.0000,7,49.2274360,16.5749841,328.531,9,-0.047,22,9,3,0.994,0.00002,0.00014,0.00000,0.0001
312154260,NaN,NaN,NaN,0.0064,0.0149,0.0204,0.234,0.1357,2.9522,-0.0235,0.0000,7,49.2274360,16.5749841,328.531,9,0.264,22,9,3,0.993,0.00003,0.00014,0.00000,0.0001
312154280,NaN,NaN,NaN,0.0064,0.0149,0.0204,0.365,3.2420,2.9507,-0.0266,0.0000,7,49.2274360,16.5749841,328.528,9,-0.402,22,9,3,0.994,0.00003,0.00014,0.00000,0.0001
312154300,NaN,NaN,NaN,0.0064,0.0149,0.0204,0.025,3.6149,2.9526,-0.0273,0.0000,7,49.2274360,16.5749841,328.529,9,0.004,22,9,3,0.996,0.00002,0.00014,0.00000,0.0001
312154320,NaN,NaN,NaN,0.0064,0.0149,0.0204,0.098,2.6759,2.9499,-0.0270,0.0000,7,49.2274360,16.5749841,328.531,9,-0.068,22,9,3,0.995,0.00002,0.00014,0.00000,0.0001
312154340,NaN,NaN,NaN,0.0064,0.0149,0.0204,0.058,1.2767,2.9498,-0.0290,0.0000,7,49.2274360,16.5749842,328.532,9,-0.186,22,9,3,0.995,0.00002,0.00014,0.00000,0.0001
312154360,NaN,NaN,NaN,0.0064,0.0149,0.0204,0.134,5.6120,2.9511,-0.0274,0.0000,7,49.2274360,16.5749841,328.533,9,0.153,22,9,3,0.994,0.00002,0.00014,0.00000,0.0001
312154380,NaN,NaN,NaN,0.0064,0.0149,0.0204,0.063,0.8963,2.9506,-0.0222,0.0000,7,49.2274360,16.5749842,328.536,9,0.323,22,9,3,0.994,0.00003,0.00014,0.00000,0.0001
312154400,NaN,NaN,NaN,0.0064,0.0149,0.0204,0.020,3.7581,2.9514,-0.0257,0.0000,7,49.2274360,16.5749841,328.534,9,0.009,22,9,3,0.995,0.00002,0.00014,0.00000,0.0001
312154420,NaN,NaN,NaN,0.0064,0.0149,0.0204,0.134,0.2603,2.9508,-0.0255,0.0000,7,49.2274360,16.5749841,328.535,9,-0.080,22,9,3,0.993,0.00003,0.00014,0.00000,0.0001
312154440,NaN,NaN,NaN,0.0064,0.0149,0.0204,0.198,3.1924,2.9508,-0.0275,0.0000,7,49.2274360,16.5749841,328.532,9,-0.241,22,9,3,0.994,0.00003,0.00014,0.00000,0.0001
312154460,NaN,NaN,NaN,0.0064,0.0149,0.0204,0.124,0.2183,2.9510,-0.0245,0.0000,7,49.2274360,16.5749841,328.534,9,0.214,22,9,3,0.992,0.00003,0.00014,0.00000,0.0001
312154480,NaN,NaN,NaN,0.0064,0.0149,0.0204,0.061,3.5648,2.9522,-0.0297,0.0000,7,49.2274360,16.5749841,328.533,9,0.065,22,9,3,0.996,0.00002,0.00014,0.00000,0.0001
312154500,NaN,NaN,NaN,0.0064,0.0149,0.0204,0.023,6.0216,2.9527,-0.0309,0.0000,7,49.2274360,16.5749841,328.532,9,0.018,22,9,3,0.996,0.00002,0.00014,0.00000,0.0001
312154520,NaN,NaN,NaN,0.0064,0.0149,0.0204,0.035,3.5231,2.9530,-0.0266,0.0000,7,49.2274360,16.5749841,328.535,9,0.050,22,9,3,0.994,0.00002,0.00014,0.00000,0.0001
312154540,NaN,NaN,NaN,0.0064,0.0149,0.0204,0.132,0.6239,2.9484,-0.0253,0.0000,7,49.2274360,16.5749842,328.535,9,0.056,22,9,3,0.993,0.00003,0.00014,0.00000,0.0001
312154560,NaN,NaN,NaN,0.0064,0.0149,0.0204,0.076,1.5511,2.9476,-0.0274,0.0000,7,49.2274360,16.5749842,328.533,9,-0.248,22,9,3,0.992,0.00003,0.00014,0.00000,0.0001
312154580,NaN,NaN,NaN,0.0064,0.0149,0.0204,0.129,4.3986,2.9504,-0.0257,0.0000,7,49.2274360,16.5749841,328.531,9,-0.083,22,9,3,0.991,0.00003,0.00014,0.00000,0.0001
312154600,NaN,NaN,NaN,0.0064,0.0149,0.0204,0.020,6.0094,2.9511,-0.0238,0.0000,7,49.2274360,16.5749841,328.531,9,0.016,22,9,3,0.992,0.00003,0.00014,0.00000,0.0001
312154620,NaN,NaN,NaN,0.0064,0.0149,0.0204,0.218,2.9869,2.9492,-0.0258,0.0000,7,49.2274360,16.5749841,328.528,9,-0.158,22,9,3,0.996,0.00002,0.00014,0.00000,0.0001
312154640,NaN,NaN,NaN,0.0064,0.0149,0.0204,0.224,0.0553,2.9504,-0.0309,0.0000,7,49.2274360,16.5749841,328.529,9,0.010,22,9,3,0.996,0.00002,0.00014,0.00000,0.0001
312154660,NaN,NaN,NaN,0.0060,0.0145,0.0195,0.102,5.6204,2.9523,-0.0297,0.0000,7,49.2274360,16.5749841,328.535,9,0.246,22,9,3,0.997,0.00002,0.00014,0.00000,0.0001
312154680,NaN,NaN,NaN,0.0060,0.0145,0.0195,0.103,0.3427,2.9508,-0.0292,0.0000,7,49.2274360,16.5749841,328.537,9,0.117,22,9,3,0.997,0.00002,0.00014,0.00000,0.0001
312154700,NaN,NaN,NaN,0.0060,0.0145,0.0195,0.031,0.1353,2.9499,-0.0304,0.0000,7,49.2274360,16.5749841,328.532,9,0.019,22,9,3,0.996,0.00002,0.00014,0.00000,0.0001
312154720,NaN,NaN,NaN,0.0060,0.0145,0.0195,0.231,0.1567,2.9515,-0.0245,0.0000,7,49.2274360,16.5749842,328.536,9,0.518,22,9,3,0.993,0.00003,0.00014,0.00000,0.0001
312154740,NaN,NaN,NaN,0.0060,0.0145,0.0195,0.124,0.6016,2.9483,-0.0237,0.0000,7,49.2274360,16.5749842,328.537,9,-0.008,22,9,3,0.991,0.00003,0.00014,0.00000,0.0001
312154760,NaN,NaN,NaN,0.0060,0.0145,0.0195,0.328,3.5292,2.9492,-0.0240,0.0000,7,49.2274360,16.5749841,328.535,9,-0.095,22,9,3,0.994,0.00003,0.00014,0.00000,0.0001
312154780,NaN,NaN,NaN,0.0060,0.0145,0.0195,0.124,3.4996,2.9504,-0.0267,0.0000,7,49.2274359,16.5749841,328.534,9,-0.234,22,9,3,0.995,0.00002,0.00014,0.00000,0.0001
312154800,NaN,NaN,NaN,0.0060,0.0145,0.0195,0.021,6.2528,2.9514,-0.0257,0.0000,7,49.2274359,16.5749841,328.533,9,0.003,22,9,3,0.996,0.00002,0.00014,0.00000,0.0001
312154820,NaN,NaN,NaN,0.0060,0.0145,0.0195,0.093,4.7053,2.9544,-0.0241,0.0000,7,49.2274360,16.5749841,328.535,9,0.349,22,9,3,0.997,0.00002,0.00014,0.00000,0.0001
312154840,NaN,NaN,NaN,0.0060,0.0145,0.0195,0.127,0.3630,2.9519,-0.0254,0.0000,7,49.2274360,16.5749841,328.536,9,0.018,22,9,3,0.993,0.00003,0.00014,0.00000,0.0001
312154860,NaN,NaN,NaN,0.0060,0.0145,0.0195,0.104,2.3683,2.9509,-0.0219,0.0000,7,49.2274360,16.5749841,328.535,9,-0.201,22,9,3,0.994,0.00003,0.00014,0.00000,0.0001
312154880,NaN,NaN,NaN,0.0060,0.0145,0.0195,0.144,6.0975,2.9522,-0.0252,0.0000,7,49.2274360,16.5749841,328.538,9,0.182,22,9,3,0.995,0.00002,0.00014,0.00000,0.0001
312154900,NaN,NaN,NaN,0.0060,0.0145,0.0195,0.011,0.5930,2.9502,-0.0266,0.0000,7,49.2274360,16.5749842,328.536,9,-0.042,22,9,3,0.993,0.00003,0.00014,0.00000,0.0001
312154920,NaN,NaN,NaN,0.0060,0.0145,0.0195,0.084,5.9978,2.9498,-0.0246,0.0000,7,49.2274360,16.5749841,328.538,9,0.263,22,9,3,0.992,0.00003,0.00014,0.00000,0.0001
312154940,NaN,NaN,NaN,0.0060,0.0145,0.0195,0.068,3.3933,2.9508,-0.0291,0.0000,7,49.2274360,16.5749841,328.537,9,0.093,22,9,3,0.995,0.00002,0.00014,0.00000,0.0001
312154960,NaN,NaN,NaN,0.0060,0.0145,0.0195,0.212,3.2022,2.9507,-0.0260,0.0000,7,49.2274359,16.5749841,328.534,9,-0.269,22,9,3,0.995,0.00002,0.00014,0.00000,0.0001
312154980,NaN,NaN,NaN,0.0060,0.0145,0.0195,0.210,6.0960,2.9494,-0.0265,0.0000,7,49.2274360,16.5749841,328.535,9,-0.114,22,9,3,0.992,0.00003,0.00014,0.00000,0.0001
312155000,NaN,NaN,NaN,0.0063,0.0149,0.0203,0.001,0.0000,2.9506,-0.0248,0.0000,7,49.2274359,16.5749841,328.534,9,-0.043,22,9,3,0.995,0.00002,0.00014,0.00000,0.0001
312155020,NaN,NaN,NaN,0.0063,0.0149,0.0203,0.067,2.7545,2.9511,-0.0276,0.0000,7,49.2274360,16.5749841,328.536,9,0.060,22,9,3,0.998,0.00002,0.00014,0.00000,0.0001
312155040,NaN,NaN,NaN,0.0063,0.0149,0.0203,0.113,2.5007,2.9500,-0.0295,0.0000,7,49.2274359,16.5749842,328.532,9,-0.305,22,9,3,0.996,0.00002,0.00014,0.00000,0.0001
312155060,NaN,NaN,NaN,0.0063,0.0149,0.0203,0.120,5.5800,2.9513,-0.0265,0.0000,7,49.2274360,16.5749842,328.535,9,0.268,22,9,3,0.995,0.00002,0.00014,0.00000,0.0001
312155080,NaN,NaN,NaN,0.0063,0.0149,0.0203,0.103,6.0418,2.9510,-0.0277,0.0000,7,49.2274360,16.5749841,328.535,9,0.067,22,9,3,0.998,0.00002,0.00014,0.00000,0.0001
312155100,NaN,NaN,NaN,0.0063,0.0149,0.0203,0.027,2.7348,2.9508,-0.0307,0.0000,7,49.2274359,16.5749841,328.537,9,-0.044,22,9,3,0.999,0.00002,0.00014,0.00000,0.0001
312155120,NaN,NaN,NaN,0.0063,0.0149,0.0203,0.097,5.8732,2.9520,-0.0281,0.0000,7,49.2274360,16.5749841,328.538,9,-0.106,22,9,3,0.996,0.00002,0.00014,0.00000,0.0001
312155140,NaN,NaN,NaN,0.0063,0.0149,0.0203,0.136,3.3641,2.9513,-0.0264,0.0000,7,49.2274360,16.5749841,328.535,9,-0.074,22,9,3,0.995,0.00002,0.00014,0.00000,0.0001
312155160,NaN,NaN,NaN,0.0063,0.0149,0.0203,0.086,0.5270,2.9501,-0.0245,0.0000,7,49.2274360,16.5749841,328.536,9,0.235,22,9,3,0.994,0.00003,0.00014,0.00000,0.0001
312155180,NaN,NaN,NaN,0.0063,0.0149,0.0203,0.036,0.5872,2.9496,-0.0240,0.0000,7,49.2274360,16.5749841,328.536,9,-0.069,22,9,3,0.994,0.00003,0.00014,0.00000,0.0001
312155200,NaN,NaN,NaN,0.0063,0.0149,0.0203,0.028,3.0085,2.9522,-0.0266,0.0000,7,49.2274360,16.5749841,328.538,9,-0.050,22,9,3,0.994,0.00002,0.00014,0.00000,0.0001
312155220,NaN,NaN,NaN,0.0063,0.0149,0.0203,0.241,3.0549,2.9490,-0.0256,0.0000,7,49.2274359,16.5749841,328.535,9,-0.232,22,9,3,0.994,0.00003,0.00014,0.00000,0.0001
312155240,NaN,NaN,NaN,0.0063,0.0149,0.0203,0.093,4.7395,2.9512,-0.0253,0.0000,7,49.2274359,16.5749841,328.535,9,0.080,22,9,3,0.994,0.00002,0.00014,0.00000,0.0001
312155260,NaN,NaN,NaN,0.0063,0.0149,0.0203,0.170,2.9593,2.9499,-0.0242,0.0000,7,49.2274359,16.5749841,328.531,9,-0.276,22,9,3,0.995,0.00002,0.00014,0.00000,0.0001
312155280,NaN,NaN,NaN,0.0063,0.0149,0.0203,0.135,0.0826,2.9518,-0.0264,0.0000,7,49.2274359,16.5749841,328.530,9,0.014,22,9,3,0.994,0.00002,0.00014,0.00000,0.0001
312155300,NaN,NaN,NaN,0.0063,0.0149,0.0203,0.046,2.5536,2.9488,-0.0275,0.0000,7,49.2274359,16.5749841,328.532,9,-0.036,22,9,3,0.995,0.00003,0.00014,0.00000,0.0001
312155320,NaN,NaN,NaN,0.0063,0.0149,0.0203,0.106,5.5023,2.9515,-0.0272,0.0000,7,49.2274359,16.5749841,328.534,9,0.224,22,9,3,0.996,0.00002,0.00014,0.00000,0.0001
312155340,NaN,NaN,NaN,0.0063,0.0149,0.0203,0.270,3.0292,2.9500,-0.0262,0.0000,7,49.2274359,16.5749841,328.534,9,-0.293,22,9,3,0.999,0.00002,0.00014,0.00000,0.0001
312155360,NaN,NaN,NaN,0.0063,0.0149,0.0203,0.216,0.0389,2.9520,-0.0277,0.0000,7,49.2274359,16.5749841,328.535,9,0.202,22,9,3,0.997,0.00002,0.00014,0.00000,0.0001
312155380,NaN,NaN,NaN,0.0063,0.0149,0.0203,0.037,0.8253,2.9500,-0.0288,0.0000,7,49.2274359,16.5749841,328.534,9,-0.225,22,9,3,0.996,0.00002,0.00014,0.00000,0.0001
312155400,NaN,NaN,NaN,0.0063,0.0149,0.0203,0.039,2.7085,2.9503,-0.0286,0.0000,7,49.2274359,16.5749842,328.535,9,-0.040,22,9,3,0.997,0.00002,0.00014,0.00000,0.0001
312155420,NaN,NaN,NaN,0.0063,0.0149,0.0203,0.040,2.2089,2.9481,-0.0300,0.0000,7,49.2274359,16.5749841,328.534,9,0.039,22,9,3,0.996,0.00002,0.00014,0.00000,0.0001
312155440,NaN,NaN,NaN,0.0063,0.0149,0.0203,0.070,5.9476,2.9509,-0.0265,0.0000,7,49.2274359,16.5749841,328.533,9,0.022,22,9,3,0.995,0.00002,0.00014,0.00000,0.0001
312155460,NaN,NaN,NaN,0.0063,0.0149,0.0203,0.106,5.8981,2.9506,-0.0275,0.0000,7,49.2274359,16.5749841,328.534,9,0.215,22,9,3,0.995,0.00002,0.00014,0.00000,0.0001
312155480,NaN,NaN,NaN,0.0063,0.0149,0.0203,0.092,0.5006,2.9497,-0.0276,0.0000,7,49.2274359,16.5749841,328.535,9,-0.138,22,9,3,0.994,0.00003,0.00014,0.00000,0.0001
312155500,NaN,NaN,NaN,0.0063,0.0149,0.0203,0.082,2.7932,2.9493,-0.0294,0.0000,7,49.2274359,16.5749841,328.536,9,0.007,22,9,3,0.998,0.00002,0.00014,0.00000,0.0001
312155520,NaN,NaN,NaN,0.0063,0.0149,0.0203,0.067,0.0241,2.9484,-0.0273,0.0000,7,49.2274359,16.5749841,328.537,9,0.159,22,9,3,0.997,0.00002,0.00014,0.00000,0.0001
312155540,NaN,NaN,NaN,0.0063,0.0149,0.0203,0.117,6.2017,2.9488,-0.0262,0.0000,7,49.2274359,16.5749841,328.537,9,0.100,22,9,3,0.994,0.00003,0.00014,0.00000,0.0001
312155560,NaN,NaN,NaN,0.0063,0.0149,0.0203,0.075,5.7892,2.9516,-0.0276,0.0000,7,49.2274359,16.5749841,328.535,9,0.074,22,9,3,0.996,0.00002,0.00014,0.00000,0.0001
312155580,NaN,NaN,NaN,0.0063,0.0149,0.0203,0.170,2.9905,2.9495,-0.0289,0.0000,7,49.2274359,16.5749841,328.531,9,-0.314,22,9,3,0.997,0.00002,0.00014,0.00000,0.0001
312155600,NaN,NaN,NaN,0.0063,0.0149,0.0203,0.065,2.9283,2.9501,-0.0277,0.0000,7,49.2274359,16.5749841,328.528,9,0.005,22,9,3,0.996,0.00002,0.00014,0.00000,0.0001
312155620,NaN,NaN,NaN,0.0063,0.0149,0.0203,0.048,2.0063,2.9492,-0.0237,0.0000,7,49.2274359,16.5749841,328.530,9,0.104,22,9,3,0.996,0.00002,0.00014,0.00000,0.0001
312155640,NaN,NaN,NaN,0.0063,0.0149,0.0203,0.179,6.1263,2.9520,-0.0243,0.0000,7,49.2274360,16.5749842,328.535,9,0.312,22,9,3,0.996,0.00002,0.00014,0.00000,0.0001
312155660,NaN,NaN,NaN,0.0063,0.0149,0.0203,0.107,2.8425,2.9504,-0.0256,0.0000,7,49.2274360,16.5749842,328.533,9,-0.311,22,9,3,0.996,0.00002,0.00014,0.00000,0.0001
312155680,NaN,NaN,NaN,0.0063,0.0149,0.0203,0.052,0.4756,2.9508,-0.0280,0.0000,7,49.2274359,16.5749842,328.531,9,0.101,22,9,3,0.996,0.00002,0.00014,0.00000,0.0001
312155700,NaN,NaN,NaN,0.0063,0.0149,0.0203,0.022,3.2172,2.9492,-0.0281,0.0000,7,49.2274360,16.5749841,328.531,9,0.035,22,9,3,0.994,0.00003,0.00014,0.00000,0.0001
312155720,NaN,NaN,NaN,0.0063,0.0149,0.0203,0.091,4.6500,2.9504,-0.0273,0.0000,7,49.2274359,16.5749841,328.532,9,0.004,22,9,3,0.993,0.00003,0.00014,0.00000,0.0001
312155740,NaN,NaN,NaN,0.0063,0.0149,0.0203,0.099,3.5668,2.9510,-0.0249,0.0000,7,49.2274359,16.5749841,328.531,9,-0.257,22,9,3,0.993,0.00003,0.00014,0.00000,0.0001
312155760,NaN,NaN,NaN,0.0063,0.0149,0.0203,0.145,1.6044,2.9483,-0.0239,0.0000,7,49.2274359,16.5749842,328.537,9,0.109,22,9,3,0.993,0.00003,0.00014,0.00000,0.0001
312155780,NaN,NaN,NaN,0.0061,0.0146,0.0197,0.233,5.8577,2.9513,-0.0226,0.0000,7,49.2274360,16.5749841,328.544,9,0.221,22,9,3,0.993,0.00003,0.00014,0.00000,0.0001
312155800,NaN,NaN,NaN,0.0061,0.0146,0.0197,0.012,3.8666,2.9510,-0.0259,0.0000,7,49.2274360,16.5749841,328.541,9,0.034,22,9,3,0.997,0.00002,0.00014,0.00000,0.0001
312155820,NaN,NaN,NaN,0.0061,0.0146,0.0197,0.237,0.2079,2.9497,-0.0202,0.0000,7,49.2274360,16.5749842,328.539,9,0.222,22,9,3,0.993,0.00003,0.00014,0.00000,0.0001
312155840,NaN,NaN,NaN,0.0061,0.0146,0.0197,0.260,3.4342,2.9505,-0.0295,0.0000,7,49.2274360,16.5749841,328.535,9,-0.287,22,9,3,0.995,0.00002,0.00014,0.00000,0.0001
312155860,NaN,NaN,NaN,0.0061,0.0146,0.0197,0.084,3.2522,2.9511,-0.0273,0.0000,7,49.2274360,16.5749841,328.534,9,-0.163,22,9,3,0.996,0.00002,0.00014,0.00000,0.0001
312155880,NaN,NaN,NaN,0.0061,0.0146,0.0197,0.070,0.2708,2.9505,-0.0278,0.0000,7,49.2274360,16.5749841,328.534,9,-0.114,22,9,3,0.996,0.00002,0.00014,0.00000,0.0001
312155900,NaN,NaN,NaN,0.0061,0.0146,0.0197,0.014,1.1796,2.9494,-0.0271,0.0000,7,49.2274360,16.5749841,328.540,9,0.037,22,9,3,0.995,0.00002,0.00014,0.00000,0.0001
312155920,NaN,NaN,NaN,0.0061,0.0146,0.0197,0.091,5.9307,2.9480,-0.0242,0.0000,7,49.2274360,16.5749841,328.542,9,0.143,22,9,3,0.992,0.00003,0.00014,0.00000,0.0001
312155940,NaN,NaN,NaN,0.0061,0.0146,0.0197,0.186,3.2707,2.9511,-0.0246,0.0000,7,49.2274360,16.5749841,328.538,9,-0.179,22,9,3,0.995,0.00002,0.00014,0.00000,0.0001
312155960,NaN,NaN,NaN,0.0061,0.0146,0.0197,0.135,0.0231,2.9505,-0.0248,0.0000,7,49.2274360,16.5749841,328.543,9,0.234,22,9,3,0.994,0.00003,0.00014,0.00000,0.0001
312155980,NaN,NaN,NaN,0.0061,0.0146,0.0197,0.168,3.0166,2.9489,-0.0270,0.0000,7,49.2274360,16.5749842,328.537,9,-0.608,22,9,3,0.996,0.00002,0.00014,0.00000,0.0001
312156000,NaN,NaN,NaN,0.0064,0.0150,0.0205,0.014,0.5753,2.9501,-0.0255,0.0000,7,49.2274360,16.5749842,328.539,9,0.025,22,9,3,0.993,0.00003,0.00014,0.00000,0.0001
312156020,NaN,NaN,NaN,0.0064,0.0150,0.0205,0.183,3.1290,2.9472,-0.0249,0.0000,7,49.2274360,16.5749841,328.535,9,-0.294,22,9,3,0.994,0.00003,0.00014,0.00000,0.0001
312156040,NaN,NaN,NaN,0.0064,0.0150,0.0205,0.079,3.9000,2.9496,-0.0249,0.0000,7,49.2274360,16.5749841,328.537,9,0.219,22,9,3,0.995,0.00003,0.00014,0.00000,0.0001
312156060,NaN,NaN,NaN,0.0064,0.0150,0.0205,0.049,3.3675,2.9497,-0.0261,0.0000,7,49.2274360,16.5749841,328.538,9,-0.192,22,9,3,0.997,0.00002,0.00014,0.00000,0.0001
312156080,NaN,NaN,NaN,0.0064,0.0150,0.0205,0.053,4.3447,2.9490,-0.0293,0.0000,7,49.2274360,16.5749841,328.536,9,-0.199,22,9,3,0.997,0.00002,0.00014,0.00000,0.0001
312156100,NaN,NaN,NaN,0.0064,0.0150,0.0205,0.013,1.9076,2.9516,-0.0290,0.0000,7,49.2274360,16.5749841,328.534,9,-0.007,22,9,3,0.999,0.00002,0.00014,0.00000,0.0001
312156120,NaN,NaN,NaN,0.0064,0.0150,0.0205,0.416,0.1878,2.9508,-0.0276,0.0000,7,49.2274360,16.5749841,328.539,9,0.371,22,9,3,0.997,0.00002,0.00014,0.00000,0.0001
312156140,NaN,NaN,NaN,0.0064,0.0150,0.0205,0.377,3.3271,2.9497,-0.0279,0.0000,7,49.2274360,16.5749841,328.537,9,-0.235,22,9,3,0.998,0.00002,0.00014,0.00000,0.0001
312156160,NaN,NaN,NaN,0.0064,0.0150,0.0205,0.120,0.5070,2.9493,-0.0260,0.0000,7,49.2274360,16.5749841,328.539,9,0.098,22,9,3,0.998,0.00002,0.00014,0.00000,0.0001
312156180,NaN,NaN,NaN,0.0064,0.0150,0.0205,0.181,0.0073,2.9511,-0.0271,0.0000,7,49.2274360,16.5749841,328.543,9,0.290,22,9,3,0.997,0.00002,0.00014,0.00000,0.0001
312156200,NaN,NaN,NaN,0.0064,0.0150,0.0205,0.009,2.7905,2.9488,-0.0270,0.0000,7,49.2274360,16.5749842,328.541,9,-0.014,22,9,3,0.995,0.00003,0.00014,0.00000,0.0001
312156220,NaN,NaN,NaN,0.0064,0.0150,0.0205,0.114,2.7210,2.9481,-0.0276,0.0000,7,49.2274360,16.5749842,328.539,9,-0.122,22,9,3,0.994,0.00003,0.00014,0.00000,0.0001
312156240,NaN,NaN,NaN,0.0064,0.0150,0.0205,0.151,5.8150,2.9491,-0.0236,0.0000,7,49.2274360,16.5749842,328.540,9,0.137,22,9,3,0.993,0.00003,0.00014,0.00000,0.0001
312156260,NaN,NaN,NaN,0.0064,0.0150,0.0205,0.179,0.0057,2.9493,-0.0238,0.0000,7,49.2274360,16.5749841,328.538,9,0.160,22,9,3,0.992,0.00003,0.00014,0.00000,0.0001
312156280,NaN,NaN,NaN,0.0064,0.0150,0.0205,0.443,3.1242,2.9478,-0.0254,0.0000,7,49.2274360,16.5749841,328.539,9,-0.304,22,9,3,0.994,0.00003,0.00014,0.00000,0.0001
312156300,NaN,NaN,NaN,0.0064,0.0150,0.0205,0.025,3.7544,2.9498,-0.0275,0.0000,7,49.2274360,16.5749841,328.539,9,-0.001,22,9,3,0.996,0.00002,0.00014,0.00000,0.0001
312156320,NaN,NaN,NaN,0.0064,0.0150,0.0205,0.136,6.2614,2.9518,-0.0249,0.0000,7,49.2274360,16.5749841,328.543,9,0.330,22,9,3,0.997,0.00002,0.00014,0.00000,0.0001
312156340,NaN,NaN,NaN,0.0064,0.0150,0.0205,0.068,1.8633,2.9501,-0.0251,0.0000,7,49.2274360,16.5749842,328.541,9,-0.060,22,9,3,0.995,0.00002,0.00014,0.00000,0.0001
312156360,NaN,NaN,NaN,0.0064,0.0150,0.0205,0.308,3.4940,2.9501,-0.0268,0.0000,7,49.2274360,16.5749841,328.532,9,-0.530,22,9,3,0.997,0.00002,0.00014,0.00000,0.0001
312156380,NaN,NaN,NaN,0.0064,0.0150,0.0205,0.277,0.1176,2.9509,-0.0267,0.0000,7,49.2274360,16.5749841,328.538,9,0.322,22,9,3,0.994,0.00003,0.00014,0.00000,0.0001
312156400,NaN,NaN,NaN,0.0064,0.0150,0.0205,0.025,3.7730,2.9494,-0.0272,0.0000,7,49.2274360,16.5749841,328.540,9,0.001,22,9,3,0.997,0.00002,0.00014,0.00000,0.0001
312156420,NaN,NaN,NaN,0.0064,0.0150,0.0205,0.128,3.4141,2.9489,-0.0262,0.0000,7,49.2274360,16.5749841,328.535,9,-0.283,22,9,3,0.995,0.00003,0.00014,0.00000,0.0001
312156440,NaN,NaN,NaN,0.0064,0.0150,0.0205,0.096,5.3739,2.9508,-0.0247,0.0000,7,49.2274360,16.5749841,328.535,9,0.079,22,9,3,0.993,0.00003,0.00014,0.00000,0.0001
312156460,NaN,NaN,NaN,0.0064,0.0150,0.0205,0.126,0.6174,2.9490,-0.0271,0.0000,7,49.2274360,16.5749841,328.536,9,0.212,22,9,3,0.995,0.00003,0.00014,0.00000,0.0001
312156480,NaN,NaN,NaN,0.0064,0.0150,0.0205,0.256,3.4615,2.9496,-0.0232,0.0000,7,49.2274360,16.5749841,328.535,9,-0.330,22,9,3,0.994,0.00003,0.00014,0.00000,0.0001
312156500,NaN,NaN,NaN,0.0064,0.0150,0.0205,0.017,3.7369,2.9495,-0.0213,0.0000,7,49.2274360,16.5749841,328.542,9,0.035,22,9,3,0.995,0.00003,0.00014,0.00000,0.0001
312156520,NaN,NaN,NaN,0.0064,0.0150,0.0205,0.101,4.2598,2.9521,-0.0241,0.0000,7,49.2274360,16.5749841,328.539,9,-0.248,22,9,3,0.995,0.00002,0.00014,0.00000,0.0001
312156540,NaN,NaN,NaN,0.0064,0.0150,0.0205,0.079,1.6864,2.9487,-0.0247,0.0000,7,49.2274360,16.5749841,328.539,9,0.110,22,9,3,0.995,0.00003,0.00014,0.00000,0.0001
312156560,NaN,NaN,NaN,0.0064,0.0150,0.0205,0.095,5.8545,2.9492,-0.0230,0.0000,7,49.2274360,16.5749841,328.541,9,-0.049,22,9,3,0.993,0.00003,0.00014,0.00000,0.0001
312156580,NaN,NaN,NaN,0.0064,0.0150,0.0205,0.114,0.0962,2.9501,-0.0247,0.0000,7,49.2274360,16.5749841,328.541,9,0.259,22,9,3,0.993,0.00003,0.00014,0.00000,0.0001
312156600,NaN,NaN,NaN,0.0061,0.0147,0.0198,0.005,4.1572,2.9486,-0.0263,0.0000,7,49.2274360,16.5749841,328.541,9,0.046,22,9,3,0.994,0.00003,0.00014,0.00000,0.0001
312156620,NaN,NaN,NaN,0.0061,0.0147,0.0198,0.076,1.1211,2.9487,-0.0235,0.0000,7,49.2274360,16.5749842,328.543,9,0.286,22,9,3,0.995,0.00003,0.00014,0.00000,0.0001
312156640,NaN,NaN,NaN,0.0061,0.0147,0.0198,0.196,5.0061,2.9511,-0.0312,0.0000,7,49.2274360,16.5749841,328.535,9,-0.280,22,9,3,0.995,0.00002,0.00014,0.00000,0.0001
312156660,NaN,NaN,NaN,0.0061,0.0147,0.0198,0.103,1.9775,2.9495,-0.0276,0.0000,7,49.2274360,16.5749841,328.535,9,0.128,22,9,3,0.992,0.00003,0.00014,0.00000,0.0001
312156680,NaN,NaN,NaN,0.0061,0.0147,0.0198,0.221,2.9401,2.9488,-0.0275,0.0000,7,49.2274360,16.5749841,328.534,9,-0.330,22,9,3,0.994,0.00003,0.00015,0.00000,0.0001
312156700,NaN,NaN,NaN,0.0061,0.0147,0.0198,0.018,5.3156,2.9501,-0.0219,0.0000,7,49.2274360,16.5749841,328.539,9,0.047,22,9,3,0.990,0.00003,0.00014,0.00000,0.0001
312156720,NaN,NaN,NaN,0.0061,0.0147,0.0198,0.149,2.6130,2.9483,-0.0220,0.0000,7,49.2274360,16.5749842,328.540,9,0.031,22,9,3,0.991,0.00003,0.00014,0.00000,0.0001
312156740,NaN,NaN,NaN,0.0061,0.0147,0.0198,0.118,3.7442,2.9496,-0.0245,0.0000,7,49.2274360,16.5749841,328.539,9,-0.143,22,9,3,0.995,0.00003,0.00014,0.00000,0.0001
312156760,NaN,NaN,NaN,0.0061,0.0147,0.0198,0.032,5.7160,2.9505,-0.0272,0.0000,7,49.2274360,16.5749841,328.537,9,-0.137,22,9,3,0.996,0.00002,0.00014,0.00000,0.0001
312156780,NaN,NaN,NaN,0.0061,0.0147,0.0198,0.088,0.0262,2.9519,-0.0293,0.0000,7,49.2274360,16.5749841,328.540,9,0.363,22,9,3,0.999,0.00002,0.00014,0.00000,0.0001
312156800,NaN,NaN,NaN,0.0061,0.0147,0.0198,0.014,5.2679,2.9498,-0.0305,0.0000,7,49.2274360,16.5749841,328.536,9,0.033,22,9,3,1.000,0.00002,0.00014,0.00000,0.0001
312156820,NaN,NaN,NaN,0.0061,0.0147,0.0198,0.173,6.0828,2.9501,-0.0317,0.0000,7,49.2274360,16.5749841,328.535,9,-0.009,22,9,3,0.996,0.00002,0.00014,0.00000,0.0001
312156840,NaN,NaN,NaN,0.0061,0.0147,0.0198,0.084,6.2372,2.9515,-0.0251,0.0000,7,49.2274360,16.5749841,328.544,9,0.329,22,9,3,0.995,0.00002,0.00014,0.00000,0.0001
312156860,NaN,NaN,NaN,0.0061,0.0147,0.0198,0.295,3.1058,2.9506,-0.0269,0.0000,7,49.2274360,16.5749841,328.540,9,-0.369,22,9,3,0.997,0.00002,0.00014,0.00000,0.0001
312156880,NaN,NaN,NaN,0.0061,0.0147,0.0198,0.064,2.6280,2.9507,-0.0261,0.0000,7,49.2274360,16.5749841,328.540,9,-0.116,22,9,3,0.999,0.00002,0.00014,0.00000,0.0001
312156900,NaN,NaN,NaN,0.0061,0.0147,0.0198,0.025,1.9541,2.9488,-0.0257,0.0000,7,49.2274360,16.5749842,328.545,9,0.028,22,9,3,0.995,0.00003,0.00014,0.00000,0.0001
312156920,NaN,NaN,NaN,0.0061,0.0147,0.0198,0.155,4.1961,2.9505,-0.0254,0.0000,7,49.2274360,16.5749841,328.545,9,-0.216,22,9,3,0.993,0.00003,0.00014,0.00000,0.0001
312156940,NaN,NaN,NaN,0.0061,0.0147,0.0198,0.360,2.9796,2.9486,-0.0307,0.0000,7,49.2274360,16.5749841,328.541,9,-0.658,22,9,3,0.996,0.00002,0.00014,0.00000,0.0001
312156960,NaN,NaN,NaN,0.0061,0.0147,0.0198,0.552,0.1677,2.9482,-0.0266,0.0000,7,49.2274360,16.5749841,328.545,9,0.702,22,9,3,0.993,0.00003,0.00014,0.00000,0.0001
312156980,NaN,NaN,NaN,0.0061,0.0147,0.0198,0.203,3.2036,2.9487,-0.0249,0.0000,7,49.2274360,16.5749841,328.543,9,-0.095,22,9,3,0.993,0.00003,0.00014,0.00000,0.0001
312157000,NaN,NaN,NaN,0.0064,0.0150,0.0206,0.017,2.2244,2.9491,-0.0241,0.0000,7,49.2274360,16.5749841,328.538,9,0.008,22,9,3,0.995,0.00003,0.00014,0.00000,0.0001
312157020,NaN,NaN,NaN,0.0064,0.0150,0.0206,0.109,5.2108,2.9517,-0.0235,0.0000,7,49.2274360,16.5749841,328.533,9,-0.089,22,9,3,0.992,0.00003,0.00014,0.00000,0.0001
312157040,NaN,NaN,NaN,0.0064,0.0150,0.0206,0.087,1.3732,2.9513,-0.0255,0.0000,7,49.2274360,16.5749841,328.536,9,0.189,22,9,3,0.994,0.00003,0.00014,0.00000,0.0001
312157060,NaN,NaN,NaN,0.0064,0.0150,0.0206,0.249,3.2194,2.9502,-0.0255,0.0000,7,49.2274360,16.5749841,328.534,9,-0.433,22,9,3,0.995,0.00003,0.00014,0.00000,0.0001
312157080,NaN,NaN,NaN,0.0064,0.0150,0.0206,0.106,0.9586,2.9494,-0.0257,0.0000,7,49.2274360,16.5749841,328.533,9,0.214,22,9,3,0.996,0.00002,0.00014,0.00000,0.0001
312157100,NaN,NaN,NaN,0.0064,0.0150,0.0206,0.022,5.7390,2.9496,-0.0258,0.0000,7,49.2274360,16.5749841,328.537,9,0.021,22,9,3,0.994,0.00003,0.00014,0.00000,0.0001
312157120,NaN,NaN,NaN,0.0064,0.0150,0.0206,0.212,3.5017,2.9504,-0.0290,0.0000,7,49.2274360,16.5749841,328.533,9,-0.277,22,9,3,0.995,0.00002,0.00014,0.00000,0.0001
312157140,NaN,NaN,NaN,0.0064,0.0150,0.0206,0.175,2.7219,2.9478,-0.0280,0.0000,7,49.2274360,16.5749841,328.532,9,-0.242,22,9,3,0.997,0.00002,0.00014,0.00000,0.0001
312157160,NaN,NaN,NaN,0.0064,0.0150,0.0206,0.135,6.0006,2.9492,-0.0253,0.0000,7,49.2274360,16.5749841,328.535,9,0.275,22,9,3,0.995,0.00003,0.00014,0.00000,0.0001
312157180,NaN,NaN,NaN,0.0064,0.0150,0.0206,0.025,0.0943,2.9496,-0.0232,0.0000,7,49.2274360,16.5749841,328.537,9,0.158,22,9,3,0.993,0.00003,0.00014,0.00000,0.0001
312157200,NaN,NaN,NaN,0.0064,0.0150,0.0206,0.022,5.5862,2.9483,-0.0237,0.0000,7,49.2274360,16.5749841,328.540,9,-0.001,22,9,3,0.991,0.00003,0.00014,0.00000,0.0001
312157220,NaN,NaN,NaN,0.0064,0.0150,0.0206,0.049,1.6943,2.9492,-0.0217,0.0000,7,49.2274360,16.5749841,328.539,9,0.021,22,9,3,0.990,0.00003,0.00014,0.00000,0.0001
312157240,NaN,NaN,NaN,0.0064,0.0150,0.0206,0.175,3.6844,2.9522,-0.0235,0.0000,7,49.2274360,16.5749841,328.537,9,-0.220,22,9,3,0.994,0.00002,0.00014,0.00000,0.0001
312157260,NaN,NaN,NaN,0.0064,0.0150,0.0206,0.162,0.2553,2.9500,-0.0225,0.0000,7,49.2274360,16.5749841,328.537,9,-0.021,22,9,3,0.992,0.00003,0.00014,0.00000,0.0001
312157280,NaN,NaN,NaN,0.0064,0.0150,0.0206,0.025,2.7679,2.9502,-0.0259,0.0000,7,49.2274360,16.5749841,328.539,9,-0.001,22,9,3,0.994,0.00003,0.00014,0.00000,0.0001
312157300,NaN,NaN,NaN,0.0064,0.0150,0.0206,0.021,5.6628,2.9504,-0.0243,0.0000,7,49.2274360,16.5749841,328.540,9,0.031,22,9,3,0.993,0.00003,0.00014,0.00000,0.0001
312157320,NaN,NaN,NaN,0.0064,0.0150,0.0206,0.188,3.2016,2.9519,-0.0265,0.0000,7,49.2274360,16.5749841,328.537,9,-0.256,22,9,3,0.997,0.00002,0.00014,0.00000,0.0001
312157340,NaN,NaN,NaN,0.0064,0.0150,0.0206,0.100,2.0848,2.9469,-0.0314,0.0000,7,49.2274360,16.5749841,328.535,9,-0.274,22,9,3,0.996,0.00003,0.00014,0.00000,0.0001
312157360,NaN,NaN,NaN,0.0064,0.0150,0.0206,0.233,5.9687,2.9494,-0.0251,0.0000,7,49.2274360,16.5749841,328.539,9,0.361,22,9,3,0.995,0.00003,0.00014,0.00000,0.0001
312157380,NaN,NaN,NaN,0.0064,0.0150,0.0206,0.098,3.2548,2.9483,-0.0268,0.0000,7,49.2274360,16.5749841,328.537,9,-0.240,22,9,3,0.994,0.00003,0.00014,0.00000,0.0001
312157400,NaN,NaN,NaN,0.0064,0.0150,0.0206,0.015,5.4039,2.9483,-0.0276,0.0000,7,49.2274360,16.5749841,328.534,9,0.019,22,9,3,0.995,0.00003,0.00014,0.00000,0.0001
312157420,NaN,NaN,NaN,0.0064,0.0150,0.0206,0.086,5.7679,2.9510,-0.0273,0.0000,7,49.2274360,16.5749841,328.536,9,0.254,22,9,3,0.998,0.00002,0.00014,0.00000,0.0001
312157440,NaN,NaN,NaN,0.0064,0.0150,0.0206,0.151,5.5495,2.9530,-0.0263,0.0000,7,49.2274360,16.5749841,328.537,9,0.261,22,9,3,0.997,0.00002,0.00014,0.00000,0.0001
312157460,NaN,NaN,NaN,0.0064,0.0150,0.0206,0.098,2.7873,2.9494,-0.0285,0.0000,7,49.2274360,16.5749841,328.532,9,-0.357,22,9,3,0.996,0.00002,0.00014,0.00000,0.0001
312157480,NaN,NaN,NaN,0.0064,0.0150,0.0206,0.118,5.9624,2.9530,-0.0260,0.0000,7,49.2274360,16.5749841,328.535,9,0.124,22,9,3,0.993,0.00002,0.00014,0.00000,0.0001
312157500,NaN,NaN,NaN,0.0064,0.0150,0.0206,0.025,4.2659,2.9532,-0.0261,0.0000,7,49.2274360,16.5749841,328.537,9,0.072,22,9,3,0.993,0.00002,0.00014,0.00000,0.0001
312157520,NaN,NaN,NaN,0.0064,0.0150,0.0206,0.208,2.7280,2.9507,-0.0240,0.0000,7,49.2274360,16.5749841,328.537,9,-0.241,22,9,3,0.994,0.00003,0.00014,0.00000,0.0001
312157540,NaN,NaN,NaN,0.0064,0.0150,0.0206,0.152,0.3609,2.9491,-0.0231,0.0000,7,49.2274360,16.5749841,328.536,9,0.062,22,9,3,0.992,0.00003,0.00014,0.00000,0.0001
312157560,NaN,NaN,NaN,0.0064,0.0150,0.0206,0.124,5.8015,2.9511,-0.0234,0.0000,7,49.2274360,16.5749841,328.536,9,0.107,22,9,3,0.992,0.00003,0.00014,0.00000,0.0001
312157580,NaN,NaN,NaN,0.0064,0.0150,0.0206,0.314,3.3072,2.9502,-0.0266,0.0000,7,49.2274360,16.5749841,328.537,9,-0.122,22,9,3,0.997,0.00002,0.00014,0.00000,0.0001
312157600,NaN,NaN,NaN,0.0064,0.0150,0.0206,0.020,4.1822,2.9495,-0.0281,0.0000,7,49.2274360,16.5749841,328.532,9,0.066,22,9,3,0.996,0.00002,0.00014,0.00000,0.0001
312157620,NaN,NaN,NaN,0.0064,0.0150,0.0206,0.223,3.0865,2.9496,-0.0309,0.0000,7,49.2274360,16.5749841,328.530,9,-0.121,22,9,3,0.997,0.00002,0.00014,0.00000,0.0001
312157640,NaN,NaN,NaN,0.0064,0.0150,0.0206,0.277,6.1324,2.9523,-0.0279,0.0000,7,49.2274360,16.5749841,328.536,9,0.531,22,9,3,0.996,0.00002,0.00014,0.00000,0.0001
312157660,NaN,NaN,NaN,0.0064,0.0150,0.0206,0.235,3.0160,2.9507,-0.0259,0.0000,7,49.2274360,16.5749841,328.535,9,-0.468,22,9,3,0.995,0.00002,0.00014,0.00000,0.0001
312157680,NaN,NaN,NaN,0.0064,0.0150,0.0206,0.049,4.6073,2.9502,-0.0193,0.0000,7,49.2274360,16.5749841,328.537,9,0.079,22,9,3,0.994,0.00003,0.00014,0.00000,0.0001
312157700,NaN,NaN,NaN,0.0064,0.0150,0.0206,0.021,3.3518,2.9502,-0.0238,0.0000,7,49.2274360,16.5749841,328.534,9,0.052,22,9,3,0.993,0.00003,0.00014,0.00000,0.0001
312157720,NaN,NaN,NaN,0.0064,0.0150,0.0206,0.321,5.9610,2.9528,-0.0246,0.0000,7,49.2274360,16.5749841,328.536,9,0.347,22,9,3,0.993,0.00003,0.00014,0.00000,0.0001
312157740,NaN,NaN,NaN,0.0061,0.0148,0.0199,0.140,2.8951,2.9511,-0.0259,0.0000,7,49.2274360,16.5749841,328.537,9,0.027,22,9,3,0.997,0.00002,0.00014,0.00000,0.0001
312157760,NaN,NaN,NaN,0.0061,0.0148,0.0199,0.108,3.4138,2.9493,-0.0291,0.0000,7,49.2274360,16.5749841,328.533,9,-0.348,22,9,3,0.997,0.00002,0.00014,0.00000,0.0001
312157780,NaN,NaN,NaN,0.0061,0.0148,0.0199,0.110,0.3764,2.9487,-0.0279,0.0000,7,49.2274360,16.5749841,328.533,9,0.067,22,9,3,0.994,0.00003,0.00014,0.00000,0.0001
312157800,NaN,NaN,NaN,0.0061,0.0148,0.0199,0.012,3.4172,2.9514,-0.0263,0.0000,7,49.2274360,16.5749841,328.536,9,0.049,22,9,3,0.994,0.00003,0.00014,0.00000,0.0001
312157820,NaN,NaN,NaN,0.0061,0.0148,0.0199,0.190,2.6499,2.9486,-0.0258,0.0000,7,49.2274360,16.5749841,328.533,9,-0.414,22,9,3,0.993,0.00003,0.00014,0.00000,0.0001
312157840,NaN,NaN,NaN,0.0061,0.0148,0.0199,0.243,3.7647,2.9502,-0.0257,0.0000,7,49.2274360,16.5749841,328.531,9,-0.125,22,9,3,0.992,0.00003,0.00014,0.00000,0.0001
312157860,NaN,NaN,NaN,0.0061,0.0148,0.0199,0.251,0.5135,2.9498,-0.0226,0.0000,7,49.2274360,16.5749841,328.537,9,0.366,22,9,3,0.993,0.00003,0.00014,0.00000,0.0001
312157880,NaN,NaN,NaN,0.0061,0.0148,0.0199,0.039,2.8856,2.9496,-0.0251,0.0000,7,49.2274360,16.5749841,328.537,9,-0.299,22,9,3,0.993,0.00003,0.00014,0.00000,0.0001
312157900,NaN,NaN,NaN,0.0061,0.0148,0.0199,0.032,3.3342,2.9511,-0.0225,0.0000,7,49.2274360,16.5749841,328.539,9,0.044,22,9,3,0.996,0.00002,0.00014,0.00000,0.0001
312157920,NaN,NaN,NaN,0.0061,0.0148,0.0199,0.361,0.0363,2.9519,-0.0217,0.0000,7,49.2274360,16.5749841,328.544,9,0.302,22,9,3,0.992,0.00003,0.00014,0.00000,0.0001
312157940,NaN,NaN,NaN,0.0061,0.0148,0.0199,0.150,3.7066,2.9517,-0.0228,0.0000,7,49.2274360,16.5749841,328.539,9,-0.468,22,9,3,0.993,0.00003,0.00014,0.00000,0.0001
312157960,NaN,NaN,NaN,0.0061,0.0148,0.0199,0.084,1.4098,2.9497,-0.0248,0.0000,7,49.2274360,16.5749841,328.541,9,0.175,22,9,3,0.994,0.00003,0.00014,0.00000,0.0001
312157980,NaN,NaN,NaN,0.0061,0.0148,0.0199,0.175,3.3782,2.9512,-0.0243,0.0000,7,49.2274360,16.5749841,328.537,9,-0.023,22,9,3,0.995,0.00002,0.00014,0.00000,0.0001
312158000,NaN,NaN,NaN,0.0064,0.0151,0.0207,0.022,3.2969,2.9513,-0.0243,0.0000,7,49.2274360,16.5749841,328.534,9,0.036,22,9,3,0.993,0.00003,0.00014,0.00000,0.0001
312158020,NaN,NaN,NaN,0.0064,0.0151,0.0207,0.058,2.6071,2.9506,-0.0236,0.0000,7,49.2274360,16.5749841,328.536,9,0.056,22,9,3,0.994,0.00003,0.00014,0.00000,0.0001
312158040,NaN,NaN,NaN,0.0064,0.0151,0.0207,0.083,2.7194,2.9501,-0.0231,0.0000,7,49.2274360,16.5749841,328.533,9,-0.250,22,9,3,0.991,0.00003,0.00014,0.00000,0.0001
312158060,NaN,NaN,NaN,0.0064,0.0151,0.0207,0.096,3.7320,2.9501,-0.0271,0.0000,7,49.2274360,16.5749841,328.531,9,-0.151,22,9,3,0.995,0.00002,0.00014,0.00000,0.0001
312158080,NaN,NaN,NaN,0.0064,0.0151,0.0207,0.084,0.4560,2.9501,-0.0233,0.0000,7,49.2274360,16.5749841,328.535,9,0.254,22,9,3,0.993,0.00003,0.00014,0.00000,0.0001
312158100,NaN,NaN,NaN,0.0064,0.0151,0.0207,0.038,3.1229,2.9482,-0.0262,0.0000,7,49.2274360,16.5749841,328.534,9,0.025,22,9,3,0.995,0.00003,0.00014,0.00000,0.0001
312158120,NaN,NaN,NaN,0.0064,0.0151,0.0207,0.170,0.0109,2.9503,-0.0257,0.0000,7,49.2274360,16.5749841,328.536,9,0.183,22,9,3,0.993,0.00003,0.00014,0.00000,0.0001
312158140,NaN,NaN,NaN,0.0064,0.0151,0.0207,0.084,3.9952,2.9512,-0.0262,0.0000,7,49.2274360,16.5749841,328.539,9,0.009,22,9,3,0.994,0.00003,0.00014,0.00000,0.0001
312158160,NaN,NaN,NaN,0.0064,0.0151,0.0207,0.046,2.7183,2.9495,-0.0275,0.0000,7,49.2274360,16.5749841,328.537,9,-0.360,22,9,3,0.993,0.00003,0.00014,0.00000,0.0001
312158180,NaN,NaN,NaN,0.0064,0.0151,0.0207,0.168,2.3535,2.9490,-0.0244,0.0000,7,49.2274360,16.5749841,328.540,9,0.155,22,9,3,0.995,0.00003,0.00014,0.00000,0.0001
312158200,NaN,NaN,NaN,0.0064,0.0151,0.0207,0.027,3.1674,2.9495,-0.0268,0.0000,7,49.2274360,16.5749841,328.535,9,0.018,22,9,3,0.995,0.00003,0.00014,0.00000,0.0001
312158220,NaN,NaN,NaN,0.0064,0.0151,0.0207,0.054,2.3743,2.9483,-0.0267,0.0000,7,49.2274360,16.5749841,328.531,9,0.026,22,9,3,0.993,0.00003,0.00014,0.00000,0.0001
312158240,NaN,NaN,NaN,0.0064,0.0151,0.0207,0.109,5.0242,2.9514,-0.0227,0.0000,7,49.2274360,16.5749841,328.534,9,0.459,22,9,3,0.993,0.00003,0.00014,0.00000,0.0001
312158260,NaN,NaN,NaN,0.0064,0.0151,0.0207,0.026,0.9802,2.9506,-0.0210,0.0000,7,49.2274360,16.5749841,328.534,9,-0.090,22,9,3,0.992,0.00003,0.00014,0.00000,0.0001
312158280,NaN,NaN,NaN,0.0064,0.0151,0.0207,0.116,5.7539,2.9506,-0.0213,0.0000,7,49.2274360,16.5749841,328.533,9,-0.088,22,9,3,0.990,0.00003,0.00014,0.00000,0.0001
312158300,NaN,NaN,NaN,0.0064,0.0151,0.0207,0.011,4.9363,2.9498,-0.0255,0.0000,7,49.2274360,16.5749841,328.528,9,0.032,22,9,3,0.992,0.00003,0.00014,0.00000,0.0001
312158320,NaN,NaN,NaN,0.0064,0.0151,0.0207,0.432,0.2370,2.9501,-0.0213,0.0000,7,49.2274360,16.5749841,328.533,9,0.690,22,9,3,0.991,0.00003,0.00014,0.00000,0.0001
312158340,NaN,NaN,NaN,0.0064,0.0151,0.0207,0.164,3.1077,2.9490,-0.0235,0.0000,7,49.2274360,16.5749841,328.532,9,-0.189,22,9,3,0.992,0.00003,0.00014,0.00000,0.0001
312158360,NaN,NaN,NaN,0.0064,0.0151,0.0207,0.137,3.6004,2.9516,-0.0240,0.0000,7,49.2274360,16.5749841,328.533,9,0.023,22,9,3,0.994,0.00003,0.00014,0.00000,0.0001
312158380,NaN,NaN,NaN,0.0064,0.0151,0.0207,0.082,0.1889,2.9512,-0.0276,0.0000,7,49.2274360,16.5749841,328.532,9,-0.125,22,9,3,0.996,0.00002,0.00014,0.00000,0.0001
312158400,NaN,NaN,NaN,0.0064,0.0151,0.0207,0.014,5.2453,2.9525,-0.0270,0.0000,7,49.2274360,16.5749841,328.534,9,0.028,22,9,3,0.995,0.00002,0.00014,0.00000,0.0001
312158420,NaN,NaN,NaN,0.0064,0.0151,0.0207,0.112,2.7365,2.9513,-0.0249,0.0000,7,49.2274360,16.5749841,328.533,9,-0.091,22,9,3,0.993,0.00003,0.00014,0.00000,0.0001
312158440,NaN,NaN,NaN,0.0064,0.0151,0.0207,0.099,6.2178,2.9531,-0.0239,0.0000,7,49.2274360,16.5749841,328.532,9,0.177,22,9,3,0.994,0.00002,0.00014,0.00000,0.0001
312158460,NaN,NaN,NaN,0.0064,0.0151,0.0207,0.051,2.4785,2.9505,-0.0260,0.0000,7,49.2274360,16.5749841,328.537,9,0.055,22,9,3,0.995,0.00002,0.00014,0.00000,0.0001
312158480,NaN,NaN,NaN,0.0064,0.0151,0.0207,0.140,3.8088,2.9515,-0.0263,0.0000,7,49.2274360,16.5749841,328.533,9,-0.371,22,9,3,0.994,0.00002,0.00014,0.00000,0.0001
312158500,NaN,NaN,NaN,0.0064,0.0151,0.0207,0.033,5.5830,2.9520,-0.0280,0.0000,7,49.2274360,16.5749841,328.533,9,0.027,22,9,3,0.991,0.00003,0.00014,0.00000,0.0001
312158520,NaN,NaN,NaN,0.0064,0.0151,0.0207,0.054,5.7929,2.9524,-0.0262,0.0000,7,49.2274360,16.5749841,328.532,9,-0.026,22,9,3,0.992,0.00003,0.00014,0.00000,0.0001
312158540,NaN,NaN,NaN,0.0064,0.0151,0.0207,0.269,2.6501,2.9485,-0.0247,0.0000,7,49.2274360,16.5749841,328.531,9,-0.002,22,9,3,0.996,0.00003,0.00014,0.00000,0.0001
312158560,NaN,NaN,NaN,0.0064,0.0151,0.0207,0.185,6.1069,2.9513,-0.0282,0.0000,7,49.2274360,16.5749841,328.531,9,-0.149,22,9,3,0.995,0.00002,0.00014,0.00000,0.0001
312158580,NaN,NaN,NaN,0.0061,0.0146,0.0197,0.066,1.2566,2.9482,-0.0280,0.0000,7,49.2274360,16.5749842,328.548,9,0.177,22,9,3,0.995,0.00003,0.00014,0.00000,0.0001
312158600,NaN,NaN,NaN,0.0061,0.0146,0.0197,0.027,5.6671,2.9508,-0.0271,0.0000,7,49.2274360,16.5749841,328.548,9,0.024,22,9,3,0.997,0.00002,0.00014,0.00000,0.0001
312158620,NaN,NaN,NaN,0.0061,0.0146,0.0197,0.194,0.0292,2.9534,-0.0243,0.0000,7,49.2274360,16.5749841,328.547,9,0.164,22,9,3,0.994,0.00002,0.00014,0.00000,0.0001
312158640,NaN,NaN,NaN,0.0061,0.0146,0.0197,0.049,3.1612,2.9523,-0.0297,0.0000,7,49.2274360,16.5749841,328.544,9,-0.182,22,9,3,0.994,0.00002,0.00014,0.00000,0.0001
312158660,NaN,NaN,NaN,0.0061,0.0146,0.0197,0.088,6.0436,2.9518,-0.0254,0.0000,7,49.2274360,16.5749841,328.547,9,0.066,22,9,3,0.992,0.00003,0.00014,0.00000,0.0001
312158680,NaN,NaN,NaN,0.0061,0.0146,0.0197,0.099,2.9327,2.9517,-0.0262,0.0000,7,49.2274360,16.5749841,328.547,9,-0.096,22,9,3,0.994,0.00003,0.00014,0.00000,0.0001
312158700,NaN,NaN,NaN,0.0061,0.0146,0.0197,0.009,0.7294,2.9489,-0.0261,0.0000,7,49.2274360,16.5749841,328.548,9,0.016,22,9,3,0.992,0.00003,0.00014,0.00000,0.0001
312158720,NaN,NaN,NaN,0.0061,0.0146,0.0197,0.061,0.1379,2.9489,-0.0254,0.0000,7,49.2274360,16.5749841,328.547,9,0.136,22,9,3,0.993,0.00003,0.00014,0.00000,0.0001
312158740,NaN,NaN,NaN,0.0061,0.0146,0.0197,0.158,3.4873,2.9508,-0.0268,0.0000,7,49.2274360,16.5749841,328.542,9,-0.307,22,9,3,0.993,0.00003,0.00014,0.00000,0.0001
312158760,NaN,NaN,NaN,0.0061,0.0146,0.0197,0.086,0.0637,2.9509,-0.0274,0.0000,7,49.2274360,16.5749841,328.541,9,0.063,22,9,3,0.994,0.00003,0.00014,0.00000,0.0001
312158780,NaN,NaN,NaN,0.0061,0.0146,0.0197,0.063,2.1653,2.9476,-0.0243,0.0000,7,49.2274360,16.5749842,328.546,9,0.254,22,9,3,0.993,0.00003,0.00014,0.00000,0.0001
312158800,NaN,NaN,NaN,0.0061,0.0146,0.0197,0.008,1.1711,2.9479,-0.0256,0.0000,7,49.2274360,16.5749842,328.544,9,0.008,22,9,3,0.993,0.00003,0.00014,0.00000,0.0001
312158820,NaN,NaN,NaN,0.0061,0.0146,0.0197,0.091,5.2610,2.9510,-0.0264,0.0000,7,49.2274360,16.5749841,328.545,9,-0.053,22,9,3,0.993,0.00003,0.00014,0.00000,0.0001
312158840,NaN,NaN,NaN,0.0061,0.0146,0.0197,0.109,5.5691,2.9516,-0.0274,0.0000,7,49.2274360,16.5749841,328.545,9,0.001,22,9,3,0.993,0.00003,0.00014,0.00000,0.0001
312158860,NaN,NaN,NaN,0.0061,0.0146,0.0197,0.212,2.5458,2.9498,-0.0268,0.0000,7,49.2274360,16.5749841,328.546,9,0.095,22,9,3,0.994,0.00003,0.00014,0.00000,0.0001
312158880,NaN,NaN,NaN,0.0061,0.0146,0.0197,0.109,4.7310,2.9516,-0.0259,0.0000,7,49.2274360,16.5749841,328.545,9,-0.241,22,9,3,0.993,0.00003,0.00014,0.00000,0.0001
312158900,NaN,NaN,NaN,0.0061,0.0146,0.0197,0.024,0.8780,2.9495,-0.0248,0.0000,7,49.2274360,16.5749841,328.550,9,0.022,22,9,3,0.991,0.00003,0.00014,0.00000,0.0001
312158920,NaN,NaN,NaN,0.0061,0.0146,0.0197,0.092,5.3568,2.9536,-0.0263,0.0000,7,49.2274360,16.5749841,328.547,9,-0.094,22,9,3,0.995,0.00002,0.00014,0.00000,0.0001
312158940,NaN,NaN,NaN,0.0061,0.0146,0.0197,0.067,1.6542,2.9498,-0.0260,0.0000,7,49.2274360,16.5749841,328.545,9,-0.060,22,9,3,0.993,0.00003,0.00014,0.00000,0.0001
312158960,NaN,NaN,NaN,0.0061,0.0146,0.0197,0.218,3.2928,2.9511,-0.0290,0.0000,7,49.2274360,16.5749841,328.543,9,-0.376,22,9,3,0.995,0.00002,0.00014,0.00000,0.0001
312158980,NaN,NaN,NaN,0.0061,0.0146,0.0197,0.098,6.2313,2.9520,-0.0260,0.0000,7,49.2274360,16.5749841,328.547,9,0.341,22,9,3,0.994,0.00002,0.00014,0.00000,0.0001
312159000,NaN,NaN,NaN,0.0064,0.0150,0.0205,0.012,0.7747,2.9501,-0.0277,0.0000,7,49.2274360,16.5749841,328.546,9,0.006,22,9,3,0.994,0.00003,0.00014,0.00000,0.0001
312159020,NaN,NaN,NaN,0.0064,0.0150,0.0205,0.254,6.1901,2.9498,-0.0229,0.0000,7,49.2274360,16.5749841,328.552,9,0.319,22,9,3,0.991,0.00003,0.00014,0.00000,0.0001
312159040,NaN,NaN,NaN,0.0064,0.0150,0.0205,0.108,2.5221,2.9488,-0.0260,0.0000,7,49.2274360,16.5749841,328.552,9,-0.026,22,9,3,0.992,0.00003,0.00014,0.00000,0.0001
312159060,NaN,NaN,NaN,0.0064,0.0150,0.0205,0.083,4.0693,2.9478,-0.0259,0.0000,7,49.2274360,16.5749841,328.546,9,-0.349,22,9,3,0.987,0.00003,0.00014,0.00000,0.0001
312159080,NaN,NaN,NaN,0.0064,0.0150,0.0205,0.078,2.4455,2.9490,-0.0216,0.0000,7,49.2274360,16.5749841,328.549,9,0.193,22,9,3,0.989,0.00003,0.00014,0.00000,0.0001
312159100,NaN,NaN,NaN,0.0064,0.0150,0.0205,0.020,5.8288,2.9501,-0.0234,0.0000,7,49.2274360,16.5749841,328.548,9,-0.022,22,9,3,0.989,0.00003,0.00014,0.00000,0.0001
312159120,NaN,NaN,NaN,0.0064,0.0150,0.0205,0.092,2.6661,2.9505,-0.0238,0.0000,7,49.2274360,16.5749841,328.545,9,0.144,22,9,3,0.991,0.00003,0.00014,0.00000,0.0001
312159140,NaN,NaN,NaN,0.0064,0.0150,0.0205,0.059,6.2821,2.9519,-0.0229,0.0000,7,49.2274360,16.5749841,328.546,9,0.269,22,9,3,0.992,0.00003,0.00014,0.00000,0.0001
312159160,NaN,NaN,NaN,0.0064,0.0150,0.0205,0.097,0.5625,2.9503,-0.0247,0.0000,7,49.2274360,16.5749841,328.545,9,-0.101,22,9,3,0.993,0.00003,0.00014,0.00000,0.0001
312159180,NaN,NaN,NaN,0.0064,0.0150,0.0205,0.082,3.3527,2.9494,-0.0255,0.0000,7,49.2274360,16.5749842,328.541,9,-0.259,22,9,3,0.993,0.00003,0.00014,0.00000,0.0001
312159200,NaN,NaN,NaN,0.0064,0.0150,0.0205,0.018,5.5967,2.9499,-0.0231,0.0000,7,49.2274360,16.5749841,328.542,9,-0.019,22,9,3,0.991,0.00003,0.00014,0.00000,0.0001
312159220,NaN,NaN,NaN,0.0064,0.0150,0.0205,0.289,3.0963,2.9506,-0.0259,0.0000,7,49.2274360,16.5749841,328.544,9,-0.151,22,9,3,0.995,0.00002,0.00014,0.00000,0.0001
312159240,NaN,NaN,NaN,0.0064,0.0150,0.0205,0.183,6.1775,2.9498,-0.0263,0.0000,7,49.2274360,16.5749841,328.548,9,0.064,22,9,3,0.993,0.00003,0.00014,0.00000,0.0001
312159260,NaN,NaN,NaN,0.0064,0.0150,0.0205,0.212,3.1851,2.9502,-0.0281,0.0000,7,49.2274360,16.5749841,328.547,9,-0.460,22,9,3,0.993,0.00003,0.00014,0.00000,0.0001
312159280,NaN,NaN,NaN,0.0064,0.0150,0.0205,0.215,6.1450,2.9500,-0.0232,0.0000,7,49.2274360,16.5749841,328.550,9,0.483,22,9,3,0.988,0.00003,0.00014,0.00000,0.0001
312159300,NaN,NaN,NaN,0.0064,0.0150,0.0205,0.021,3.5557,2.9525,-0.0240,0.0000,7,49.2274360,16.5749841,328.545,9,-0.033,22,9,3,0.993,0.00002,0.00014,0.00000,0.0001
312159320,NaN,NaN,NaN,0.0064,0.0150,0.0205,0.196,1.3936,2.9480,-0.0246,0.0000,7,49.2274360,16.5749842,328.551,9,0.081,22,9,3,0.993,0.00003,0.00014,0.00000,0.0001
312159340,NaN,NaN,NaN,0.0064,0.0150,0.0205,0.175,3.7366,2.9505,-0.0265,0.0000,7,49.2274360,16.5749841,328.550,9,-0.048,22,9,3,0.995,0.00002,0.00014,0.00000,0.0001
312159360,NaN,NaN,NaN,0.0064,0.0150,0.0205,0.050,4.9031,2.9515,-0.0293,0.0000,7,49.2274360,16.5749841,328.549,9,-0.131,22,9,3,0.996,0.00002,0.00014,0.00000,0.0001
312159380,NaN,NaN,NaN,0.0064,0.0150,0.0205,0.144,0.1116,2.9507,-0.0256,0.0000,7,49.2274360,16.5749841,328.550,9,0.077,22,9,3,0.995,0.00002,0.00014,0.00000,0.0001
312159400,NaN,NaN,NaN,0.0064,0.0150,0.0205,0.017,3.4443,2.9502,-0.0260,0.0000,7,49.2274360,16.5749842,328.549,9,-0.026,22,9,3,0.995,0.00003,0.00014,0.00000,0.0001
312159420,NaN,NaN,NaN,0.0064,0.0150,0.0205,0.174,0.0332,2.9493,-0.0248,0.0000,7,49.2274360,16.5749842,328.547,9,0.013,22,9,3,0.991,0.00003,0.00014,0.00000,0.0001
312159440,NaN,NaN,NaN,0.0064,0.0150,0.0205,0.204,3.4910,2.9505,-0.0267,0.0000,7,49.2274360,16.5749841,328.545,9,-0.219,22,9,3,0.992,0.00003,0.00014,0.00000,0.0001
312159460,NaN,NaN,NaN,0.0064,0.0150,0.0205,0.032,3.2452,2.9506,-0.0229,0.0000,7,49.2274360,16.5749841,328.547,9,0.027,22,9,3,0.991,0.00003,0.00014,0.00000,0.0001
312159480,NaN,NaN,NaN,0.0064,0.0150,0.0205,0.171,0.5002,2.9489,-0.0256,0.0000,7,49.2274360,16.5749842,328.546,9,0.253,22,9,3,0.990,0.00003,0.00014,0.00000,0.0001
312159500,NaN,NaN,NaN,0.0064,0.0150,0.0205,0.037,3.8948,2.9497,-0.0272,0.0000,7,49.2274360,16.5749841,328.541,9,-0.012,22,9,3,0.992,0.00003,0.00014,0.00000,0.0001
312159520,NaN,NaN,NaN,0.0064,0.0150,0.0205,0.132,5.9573,2.9527,-0.0261,0.0000,7,49.2274360,16.5749841,328.543,9,0.265,22,9,3,0.994,0.00002,0.00014,0.00000,0.0001
312159540,NaN,NaN,NaN,0.0064,0.0150,0.0205,0.171,2.7306,2.9505,-0.0282,0.0000,7,49.2274360,16.5749841,328.539,9,-0.337,22,9,3,0.993,0.00003,0.00014,0.00000,0.0001
312159560,NaN,NaN,NaN,0.0064,0.0150,0.0205,0.170,0.0086,2.9500,-0.0250,0.0000,7,49.2274360,16.5749841,328.544,9,0.386,22,9,3,0.993,0.00003,0.00014,0.00000,0.0001
312159580,NaN,NaN,NaN,0.0064,0.0150,0.0205,0.063,0.7791,2.9502,-0.0227,0.0000,7,49.2274360,16.5749841,328.548,9,0.025,22,9,3,0.991,0.00003,0.00014,0.00000,0.0001
312159600,NaN,NaN,NaN,0.0064,0.0150,0.0205,0.028,3.8613,2.9492,-0.0260,0.0000,7,49.2274360,16.5749842,328.545,9,0.000,22,9,3,0.991,0.00003,0.00014,0.00000,0.0001
312159620,NaN,NaN,NaN,0.0064,0.0150,0.0205,0.127,3.9613,2.9515,-0.0241,0.0000,7,49.2274360,16.5749841,328.546,9,0.120,22,9,3,0.992,0.00003,0.00014,0.00000,0.0001
312159640,NaN,NaN,NaN,0.0064,0.0150,0.0205,0.070,2.1923,2.9493,-0.0237,0.0000,7,49.2274360,16.5749842,328.549,9,0.029,22,9,3,0.991,0.00003,0.00014,0.00000,0.0001
312159660,NaN,NaN,NaN,0.0064,0.0150,0.0205,0.165,5.7634,2.9543,-0.0266,0.0000,7,49.2274360,16.5749841,328.547,9,0.109,22,9,3,0.993,0.00002,0.00014,0.00000,0.0001
312159680,NaN,NaN,NaN,0.0064,0.0150,0.0205,0.131,3.4403,2.9525,-0.0307,0.0000,7,49.2274360,16.5749841,328.544,9,-0.312,22,9,3,0.995,0.00002,0.00014,0.00000,0.0001
312159700,NaN,NaN,NaN,0.0064,0.0150,0.0205,0.020,5.9217,2.9509,-0.0291,0.0000,7,49.2274360,16.5749841,328.547,9,0.021,22,9,3,0.991,0.00003,0.00014,0.00000,0.0001
312159720,NaN,NaN,NaN,0.0064,0.0150,0.0205,0.279,2.9891,2.9515,-0.0271,0.0000,7,49.2274360,16.5749841,328.542,9,-0.279,22,9,3,0.996,0.00002,0.00014,0.00000,0.0001
312159740,NaN,NaN,NaN,0.0064,0.0150,0.0205,0.311,6.1876,2.9507,-0.0266,0.0000,7,49.2274360,16.5749841,328.545,9,0.216,22,9,3,0.993,0.00003,0.00014,0.00000,0.0001
312159760,NaN,NaN,NaN,0.0064,0.0150,0.0205,0.070,3.3413,2.9516,-0.0224,0.0000,7,49.2274360,16.5749841,328.547,9,0.050,22,9,3,0.992,0.00003,0.00014,0.00000,0.0001
312159780,NaN,NaN,NaN,0.0061,0.0147,0.0198,0.092,1.1586,2.9515,-0.0223,0.0000,7,49.2274360,16.5749841,328.542,9,0.188,22,9,3,0.993,0.00003,0.00014,0.00000,0.0001
