time.ofweek-gps[ms],pos.enu-e[m],pos.enu-n[m],pos.enu-u[m],pos.rmse-e[m],pos.rmse-n[m],pos.rmse-u[m],spd.horiz[m/s],spd.course[deg],ori.yaw[rad],ori.pitch[rad],ori.roll[rad],pos.flags2[-],pos.latitude[deg],pos.longitude[deg],pos.height[m],pos.svs-used[-],spd.vert[m/s],ori.flags[-],ori.svs-used[-],ori.mode[-],ori.range[m],ori.var-yaw[rad^2],ori.var-pitch[rad^2],ori.var-roll[rad^2],ori.var-range[m^2]
312158240,-1300.245,2396.307,3.374,0.0163,0.0169,0.0181,0.003,0.0000,2.9425,-0.0183,0.1038,7,49.2274361,16.5749842,328.540,9,-0.002,14,9,3,0.000,0.00103,0.00001,0.00001,0.0000
312158260,-1300.245,2396.307,3.373,0.0163,0.0169,0.0181,0.003,0.0000,2.9425,-0.0183,0.1038,7,49.2274361,16.5749842,328.539,9,-0.003,14,9,3,0.000,0.00103,0.00001,0.00001,0.0000
312158280,-1300.246,2396.307,3.373,0.0163,0.0169,0.0181,0.003,0.0000,2.9425,-0.0183,0.1039,7,49.2274361,16.5749842,328.539,9,-0.002,14,9,3,0.000,0.00103,0.00001,0.00001,0.0000
312158300,-1300.246,2396.308,3.373,0.0163,0.0169,0.0181,0.003,0.0000,2.9425,-0.0183,0.1040,7,49.2274361,16.5749842,328.539,9,-0.003,14,9,3,0.000,0.00103,0.00001,0.00001,0.0000
312158320,-1300.246,2396.308,3.373,0.0163,0.0169,0.0181,0.003,0.0000,2.9425,-0.0183,0.1040,7,49.2274361,16.5749842,328.539,9,-0.003,14,9,3,0.000,0.00103,0.00001,0.00001,0.0000
312158340,-1300.246,2396.308,3.373,0.0163,0.0169,0.0181,0.003,0.0000,2.9425,-0.0183,0.1039,7,49.2274361,16.5749842,328.539,9,-0.002,14,9,3,0.000,0.00103,0.00001,0.00001,0.0000
312158360,-1300.246,2396.308,3.373,0.0163,0.0169,0.0181,0.003,0.0000,2.9425,-0.0182,0.1038,7,49.2274361,16.5749842,328.539,9,-0.002,14,9,3,0.000,0.00103,0.00001,0.00001,0.0000
312158380,-1300.246,2396.308,3.372,0.0163,0.0169,0.0181,0.003,0.0000,2.9425,-0.0182,0.1039,7,49.2274361,16.5749842,328.539,9,-0.002,14,9,3,0.000,0.00103,0.00001,0.00001,0.0000
312158400,-1300.246,2396.308,3.372,0.0163,0.0169,0.0181,0.003,0.0000,2.9425,-0.0182,0.1039,7,49.2274361,16.5749842,328.538,9,-0.003,14,9,3,0.000,0.00103,0.00001,0.00001,0.0000
312158420,-1300.246,2396.308,3.372,0.0163,0.0169,0.0181,0.003,0.0000,2.9425,-0.0182,0.1040,7,49.2274361,16.5749842,328.538,9,-0.002,14,9,3,0.000,0.00103,0.00001,0.00001,0.0000
312158440,-1300.246,2396.308,3.372,0.0163,0.0169,0.0181,0.003,0.0000,2.9425,-0.0182,0.1040,7,49.2274361,16.5749842,328.539,9,-0.002,14,9,3,0.000,0.00104,0.00001,0.00001,0.0000
312158460,-1300.246,2396.308,3.372,0.0163,0.0169,0.0181,0.003,0.0000,2.9425,-0.0182,0.1039,7,49.2274361,16.5749842,328.539,9,-0.002,14,9,3,0.000,0.00104,0.00001,0.00001,0.0000
312158480,-1300.246,2396.308,3.373,0.0163,0.0169,0.0181,0.003,0.0000,2.9425,-0.0182,0.1038,7,49.2274361,16.5749842,328.539,9,-0.002,14,9,3,0.000,0.00104,0.00001,0.00001,0.0000
312158500,-1300.246,2396.308,3.373,0.0163,0.0169,0.0181,0.003,0.0000,2.9425,-0.0182,0.1038,7,49.2274361,16.5749842,328.539,9,-0.002,14,9,3,0.000,0.00104,0.00001,0.00001,0.0000
312158520,-1300.246,2396.308,3.373,0.0163,0.0169,0.0181,0.003,0.0000,2.9425,-0.0182,0.1039,7,49.2274361,16.5749842,328.539,9,-0.002,14,9,3,0.000,0.00104,0.00001,0.00001,0.0000
312158540,-1300.246,2396.308,3.373,0.0163,0.0169,0.0181,0.003,0.0000,2.9425,-0.0182,0.1039,7,49.2274361,16.5749842,328.539,9,-0.002,14,9,3,0.000,0.00104,0.00001,0.00001,0.0000
312158560,-1300.246,2396.308,3.373,0.0163,0.0169,0.0181,0.003,0.0000,2.9425,-0.0182,0.1039,7,49.2274361,16.5749842,328.539,9,-0.002,14,9,3,0.000,0.00104,0.00001,0.00001,0.0000
312158580,-1300.246,2396.308,3.373,0.0163,0.0169,0.0181,0.003,0.0000,2.9425,-0.0182,0.1039,7,49.2274361,16.5749842,328.539,9,-0.002,14,9,3,0.000,0.00104,0.00001,0.00001,0.0000
312158600,-1300.246,2396.308,3.373,0.0163,0.0169,0.0181,0.003,0.0000,2.9425,-0.0182,0.1039,7,49.2274361,16.5749842,328.539,9,-0.002,14,9,3,0.000,0.00104,0.00001,0.00001,0.0000
312158620,-1300.246,2396.308,3.373,0.0163,0.0169,0.0181,0.003,0.0000,2.9425,-0.0182,0.1039,7,49.2274361,16.5749842,328.539,9,-0.002,14,9,3,0.000,0.00104,0.00001,0.00001,0.0000
312158640,-1300.246,2396.308,3.373,0.0163,0.0169,0.0181,0.003,0.0000,2.9425,-0.0182,0.1039,7,49.2274361,16.5749842,328.539,9,-0.002,14,9,3,0.000,0.00104,0.00001,0.00001,0.0000
312158660,-1300.246,2396.308,3.373,0.0163,0.0169,0.0181,0.003,0.0000,2.9425,-0.0183,0.1040,7,49.2274361,16.5749842,328.539,9,-0.002,14,9,3,0.000,0.00104,0.00001,0.00001,0.0000
312158680,-1300.246,2396.308,3.373,0.0163,0.0169,0.0181,0.003,0.0000,2.9425,-0.0183,0.1040,7,49.2274361,16.5749842,328.539,9,-0.002,14,9,3,0.000,0.00105,0.00001,0.00001,0.0000
312158700,-1300.246,2396.308,3.373,0.0163,0.0169,0.0181,0.003,0.0000,2.9425,-0.0183,0.1039,7,49.2274361,16.5749842,328.539,9,-0.002,14,9,3,0.000,0.00105,0.00001,0.00001,0.0000
312158720,-1300.246,2396.308,3.373,0.0163,0.0169,0.0181,0.003,0.0000,2.9425,-0.0183,0.1039,7,49.2274361,16.5749842,328.539,9,-0.002,14,9,3,0.000,0.00105,0.00001,0.00001,0.0000
312158740,-1300.246,2396.308,3.373,0.0163,0.0169,0.0181,0.003,0.0000,2.9425,-0.0183,0.1039,7,49.2274361,16.5749842,328.540,9,-0.002,14,9,3,0.000,0.00105,0.00001,0.00001,0.0000
312158760,-1300.247,2396.308,3.373,0.0163,0.0169,0.0181,0.003,0.0000,2.9425,-0.0183,0.1039,7,49.2274361,16.5749842,328.540,9,-0.002,14,9,3,0.000,0.00105,0.00001,0.00001,0.0000
312158780,-1300.247,2396.308,3.374,0.0163,0.0169,0.0181,0.003,0.0000,2.9425,-0.0183,0.1040,7,49.2274361,16.5749841,328.540,9,-0.002,14,9,3,0.000,0.00105,0.00001,0.00001,0.0000
312158800,-1300.247,2396.308,3.374,0.0163,0.0169,0.0181,0.003,0.0000,2.9425,-0.0183,0.1040,7,49.2274361,16.5749841,328.540,9,-0.002,14,9,3,0.000,0.00105,0.00001,0.00001,0.0000
312158820,-1300.247,2396.308,3.374,0.0163,0.0169,0.0181,0.003,0.0000,2.9424,-0.0182,0.1039,7,49.2274361,16.5749841,328.540,9,-0.002,14,9,3,0.000,0.00105,0.00001,0.00001,0.0000
312158840,-1300.247,2396.308,3.375,0.0163,0.0169,0.0181,0.003,0.0000,2.9424,-0.0182,0.1039,7,49.2274361,16.5749841,328.541,9,-0.002,14,9,3,0.000,0.00105,0.00001,0.00001,0.0000
312158860,-1300.247,2396.308,3.375,0.0163,0.0169,0.0181,0.003,0.0000,2.9425,-0.0182,0.1039,7,49.2274361,16.5749841,328.541,9,-0.002,14,9,3,0.000,0.00105,0.00001,0.00001,0.0000
312158880,-1300.247,2396.308,3.375,0.0163,0.0169,0.0181,0.003,0.0000,2.9425,-0.0182,0.1040,7,49.2274361,16.5749841,328.541,9,-0.002,14,9,3,0.000,0.00105,0.00001,0.00001,0.0000
312158900,-1300.247,2396.308,3.376,0.0163,0.0169,0.0181,0.003,0.0000,2.9424,-0.0182,0.1040,7,49.2274361,16.5749841,328.542,9,-0.002,14,9,3,0.000,0.00105,0.00001,0.00001,0.0000
312158920,-1300.248,2396.308,3.376,0.0163,0.0169,0.0181,0.003,0.0000,2.9424,-0.0182,0.1040,7,49.2274361,16.5749841,328.542,9,-0.001,14,9,3,0.000,0.00105,0.00001,0.00001,0.0000
312158940,-1300.248,2396.308,3.376,0.0163,0.0169,0.0181,0.003,0.0000,2.9424,-0.0182,0.1040,7,49.2274361,16.5749841,328.543,9,-0.001,14,9,3,0.000,0.00105,0.00001,0.00001,0.0000
312158960,-1300.248,2396.308,3.377,0.0163,0.0169,0.0181,0.003,0.0000,2.9424,-0.0182,0.1039,7,49.2274361,16.5749841,328.543,9,-0.001,14,9,3,0.000,0.00105,0.00001,0.00001,0.0000
312158980,-1300.248,2396.308,3.377,0.0163,0.0169,0.0181,0.003,0.0000,2.9424,-0.0182,0.1039,7,49.2274361,16.5749841,328.543,9,-0.002,14,9,3,0.000,0.00105,0.00001,0.00001,0.0000
312159000,-1300.248,2396.308,3.378,0.0163,0.0169,0.0181,0.003,0.0000,2.9424,-0.0182,0.1040,7,49.2274361,16.5749841,328.544,9,-0.002,14,9,3,0.000,0.00105,0.00001,0.00001,0.0000
312159020,-1300.248,2396.308,3.378,0.0163,0.0169,0.0181,0.003,0.0000,2.9424,-0.0182,0.1040,7,49.2274361,16.5749841,328.544,9,-0.002,14,9,3,0.000,0.00105,0.00001,0.00001,0.0000
312159040,-1300.248,2396.307,3.378,0.0163,0.0169,0.0181,0.003,0.0000,2.9424,-0.0182,0.1041,7,49.2274361,16.5749841,328.544,9,-0.001,14,9,3,0.000,0.00105,0.00001,0.00001,0.0000
312159060,-1300.248,2396.307,3.378,0.0163,0.0169,0.0181,0.003,0.0000,2.9425,-0.0182,0.1040,7,49.2274361,16.5749841,328.544,9,-0.001,14,9,3,0.000,0.00106,0.00001,0.00001,0.0000
312159080,-1300.248,2396.307,3.378,0.0163,0.0169,0.0181,0.003,0.0000,2.9425,-0.0182,0.1040,7,49.2274361,16.5749841,328.544,9,-0.001,14,9,3,0.000,0.00106,0.00001,0.00001,0.0000
312159100,-1300.248,2396.307,3.378,0.0163,0.0169,0.0181,0.002,0.0000,2.9424,-0.0182,0.1039,7,49.2274361,16.5749841,328.544,9,-0.001,14,9,3,0.000,0.00106,0.00001,0.00001,0.0000
312159120,-1300.248,2396.307,3.378,0.0163,0.0169,0.0181,0.002,0.0000,2.9424,-0.0183,0.1040,7,49.2274361,16.5749841,328.544,9,-0.001,14,9,3,0.000,0.00106,0.00001,0.00001,0.0000
312159140,-1300.248,2396.307,3.379,0.0163,0.0169,0.0181,0.002,0.0000,2.9424,-0.0182,0.1040,7,49.2274361,16.5749841,328.545,9,-0.001,14,9,3,0.000,0.00106,0.00001,0.00001,0.0000
312159160,-1300.248,2396.307,3.379,0.0163,0.0169,0.0181,0.003,0.0000,2.9424,-0.0182,0.1041,7,49.2274361,16.5749841,328.545,9,-0.001,14,9,3,0.000,0.00106,0.00001,0.00001,0.0000
312159180,-1300.248,2396.307,3.379,0.0163,0.0169,0.0181,0.002,0.0000,2.9424,-0.0182,0.1040,7,49.2274361,16.5749841,328.545,9,-0.001,14,9,3,0.000,0.00106,0.00001,0.00001,0.0000
312159200,-1300.248,2396.307,3.379,0.0163,0.0169,0.0181,0.002,0.0000,2.9424,-0.0182,0.1040,7,49.2274361,16.5749841,328.545,9,-0.001,14,9,3,0.000,0.00106,0.00001,0.00001,0.0000
312159220,-1300.248,2396.307,3.379,0.0163,0.0169,0.0181,0.002,0.0000,2.9424,-0.0182,0.1039,7,49.2274361,16.5749841,328.545,9,-0.001,14,9,3,0.000,0.00106,0.00001,0.00001,0.0000
312159240,-1300.248,2396.307,3.379,0.0163,0.0169,0.0181,0.002,0.0000,2.9424,-0.0182,0.1040,7,49.2274361,16.5749841,328.545,9,-0.001,14,9,3,0.000,0.00107,0.00001,0.00001,0.0000
312159260,-1300.248,2396.307,3.379,0.0163,0.0169,0.0181,0.003,0.0000,2.9424,-0.0182,0.1040,7,49.2274361,16.5749841,328.546,9,-0.001,14,9,3,0.000,0.00107,0.00001,0.00001,0.0000
312159280,-1300.248,2396.307,3.380,0.0163,0.0169,0.0181,0.003,0.0000,2.9423,-0.0182,0.1041,7,49.2274361,16.5749841,328.546,9,-0.001,14,9,3,0.000,0.00107,0.00001,0.00001,0.0000
312159300,-1300.248,2396.307,3.380,0.0163,0.0169,0.0181,0.003,0.0000,2.9423,-0.0182,0.1041,7,49.2274361,16.5749841,328.546,9,-0.001,14,9,3,0.000,0.00107,0.00001,0.00001,0.0000
312159320,-1300.248,2396.307,3.380,0.0163,0.0169,0.0181,0.003,0.0000,2.9424,-0.0182,0.1040,7,49.2274361,16.5749841,328.546,9,-0.001,14,9,3,0.000,0.00107,0.00001,0.00001,0.0000
312159340,-1300.248,2396.307,3.380,0.0163,0.0169,0.0181,0.003,0.0000,2.9424,-0.0182,0.1040,7,49.2274361,16.5749841,328.546,9,-0.001,14,9,3,0.000,0.00107,0.00001,0.00001,0.0000
312159360,-1300.248,2396.307,3.380,0.0163,0.0169,0.0181,0.003,0.0000,2.9424,-0.0182,0.1040,7,49.2274361,16.5749841,328.546,9,-0.001,14,9,3,0.000,0.00107,0.00001,0.00001,0.0000
312159380,-1300.248,2396.307,3.380,0.0163,0.0169,0.0181,0.003,0.0000,2.9423,-0.0182,0.1040,7,49.2274361,16.5749841,328.546,9,-0.001,14,9,3,0.000,0.00107,0.00001,0.00001,0.0000
312159400,-1300.248,2396.308,3.381,0.0163,0.0169,0.0181,0.003,0.0000,2.9423,-0.0182,0.1041,7,49.2274361,16.5749841,328.547,9,-0.001,14,9,3,0.000,0.00107,0.00001,0.00001,0.0000
312159420,-1300.248,2396.308,3.381,0.0163,0.0169,0.0181,0.003,0.0000,2.9423,-0.0181,0.1041,7,49.2274361,16.5749841,328.547,9,0.000,14,9,3,0.000,0.00107,0.00001,0.00001,0.0000
312159440,-1300.248,2396.308,3.381,0.0163,0.0169,0.0181,0.003,0.0000,2.9423,-0.0181,0.1041,7,49.2274361,16.5749841,328.547,9,0.000,14,9,3,0.000,0.00107,0.00001,0.00001,0.0000
312159460,-1300.248,2396.308,3.381,0.0163,0.0169,0.0181,0.002,0.0000,2.9423,-0.0181,0.1040,7,49.2274361,16.5749841,328.547,9,0.000,14,9,3,0.000,0.00107,0.00001,0.00001,0.0000
312159480,-1300.248,2396.308,3.381,0.0163,0.0169,0.0181,0.003,0.0000,2.9423,-0.0181,0.1040,7,49.2274361,16.5749841,328.547,9,0.000,14,9,3,0.000,0.00107,0.00001,0.00001,0.0000
312159500,-1300.249,2396.308,3.382,0.0163,0.0169,0.0181,0.003,0.0000,2.9423,-0.0182,0.1040,7,49.2274361,16.5749841,328.548,9,-0.001,14,9,3,0.000,0.00107,0.00001,0.00001,0.0000
312159520,-1300.249,2396.308,3.382,0.0163,0.0169,0.0181,0.003,0.0000,2.9423,-0.0182,0.1040,7,49.2274361,16.5749841,328.548,9,-0.001,14,9,3,0.000,0.00107,0.00001,0.00001,0.0000
312159540,-1300.249,2396.308,3.382,0.0163,0.0169,0.0181,0.003,0.0000,2.9423,-0.0182,0.1041,7,49.2274361,16.5749841,328.548,9,-0.001,14,9,3,0.000,0.00107,0.00001,0.00001,0.0000
312159560,-1300.249,2396.308,3.382,0.0163,0.0169,0.0181,0.003,0.0000,2.9423,-0.0182,0.1040,7,49.2274361,16.5749841,328.548,9,0.000,14,9,3,0.000,0.00107,0.00001,0.00001,0.0000
312159580,-1300.249,2396.308,3.382,0.0163,0.0169,0.0181,0.003,0.0000,2.9423,-0.0182,0.1040,7,49.2274361,16.5749841,328.548,9,0.000,14,9,3,0.000,0.00107,0.00001,0.00001,0.0000
312159600,-1300.249,2396.309,3.382,0.0163,0.0169,0.0181,0.003,0.0000,2.9423,-0.0182,0.1040,7,49.2274361,16.5749841,328.549,9,0.000,14,9,3,0.000,0.00107,0.00001,0.00001,0.0000
312159620,-1300.249,2396.309,3.383,0.0163,0.0169,0.0181,0.003,0.0000,2.9423,-0.0182,0.1040,7,49.2274361,16.5749841,328.549,9,0.000,14,9,3,0.000,0.00107,0.00001,0.00001,0.0000
312159640,-1300.249,2396.309,3.383,0.0163,0.0169,0.0181,0.003,0.0000,2.9422,-0.0182,0.1040,7,49.2274361,16.5749841,328.549,9,0.000,14,9,3,0.000,0.00107,0.00001,0.00001,0.0000
312159660,-1300.249,2396.309,3.383,0.0163,0.0169,0.0181,0.004,0.0000,2.9422,-0.0182,0.1040,7,49.2274361,16.5749841,328.549,9,0.000,14,9,3,0.000,0.00107,0.00001,0.00001,0.0000
312159680,-1300.249,2396.309,3.383,0.0163,0.0169,0.0181,0.004,0.0000,2.9422,-0.0182,0.1040,7,49.2274361,16.5749841,328.549,9,0.000,14,9,3,0.000,0.00108,0.00001,0.00001,0.0000
312159700,-1300.249,2396.309,3.383,0.0163,0.0169,0.0181,0.004,0.0000,2.9422,-0.0182,0.1040,7,49.2274361,16.5749841,328.549,9,0.000,14,9,3,0.000,0.00108,0.00001,0.00001,0.0000
312159720,-1300.249,2396.309,3.383,0.0163,0.0169,0.0181,0.004,0.0000,2.9423,-0.0182,0.1040,7,49.2274361,16.5749841,328.549,9,0.000,14,9,3,0.000,0.00108,0.00001,0.00001,0.0000
312159740,-1300.249,2396.309,3.383,0.0163,0.0169,0.0181,0.004,0.0000,2.9423,-0.0182,0.1040,7,49.2274361,16.5749841,328.549,9,0.000,14,9,3,0.000,0.00108,0.00001,0.00001,0.0000
312159760,-1300.249,2396.309,3.383,0.0163,0.0169,0.0181,0.004,0.0000,2.9423,-0.0182,0.1040,7,49.2274361,16.5749841,328.550,9,0.000,14,9,3,0.000,0.00108,0.00001,0.00001,0.0000
312159780,-1300.249,2396.309,3.384,0.0163,0.0169,0.0181,0.004,0.0000,2.9423,-0.0182,0.1040,7,49.2274361,16.5749841,328.550,9,0.000,14,9,3,0.000,0.00108,0.00001,0.00001,0.0000
312159800,-1300.249,2396.309,3.384,0.0163,0.0169,0.0181,0.004,0.0000,2.9423,-0.0182,0.1040,7,49.2274361,16.5749841,328.550,9,0.000,14,9,3,0.000,0.00108,0.00001,0.00001,0.0000
312159820,-1300.249,2396.309,3.384,0.0163,0.0169,0.0181,0.004,0.0000,2.9423,-0.0182,0.1040,7,49.2274361,16.5749841,328.550,9,0.000,14,9,3,0.000,0.00108,0.00001,0.00001,0.0000
312159840,-1300.249,2396.309,3.384,0.0163,0.0169,0.0181,0.004,0.0000,2.9423,-0.0181,0.1040,7,49.2274361,16.5749841,328.550,9,0.000,14,9,3,0.000,0.00109,0.00001,0.00001,0.0000
312159860,-1300.249,2396.309,3.384,0.0163,0.0169,0.0181,0.004,0.0000,2.9423,-0.0181,0.1040,7,49.2274361,16.5749841,328.550,9,0.000,14,9,3,0.000,0.00109,0.00001,0.00001,0.0000
312159880,-1300.249,2396.309,3.384,0.0163,0.0169,0.0181,0.004,0.0000,2.9423,-0.0181,0.1040,7,49.2274361,16.5749841,328.551,9,0.000,14,9,3,0.000,0.00109,0.00001,0.00001,0.0000
312159900,-1300.250,2396.309,3.385,0.0163,0.0169,0.0181,0.004,0.0000,2.9423,-0.0181,0.1040,7,49.2274361,16.5749841,328.551,9,0.000,14,9,3,0.000,0.00109,0.00001,0.00001,0.0000
312159920,-1300.250,2396.309,3.385,0.0163,0.0169,0.0181,0.004,0.0000,2.9423,-0.0182,0.1040,7,49.2274361,16.5749841,328.551,9,0.000,14,9,3,0.000,0.00109,0.00001,0.00001,0.0000
312159940,-1300.250,2396.309,3.385,0.0163,0.0169,0.0181,0.004,0.0000,2.9422,-0.0182,0.1040,7,49.2274361,16.5749841,328.551,9,0.000,14,9,3,0.000,0.00109,0.00001,0.00001,0.0000
312159960,-1300.250,2396.309,3.385,0.0163,0.0169,0.0181,0.004,0.0000,2.9422,-0.0182,0.1040,7,49.2274361,16.5749841,328.551,9,0.000,14,9,3,0.000,0.00109,0.00001,0.00001,0.0000
312159980,-1300.250,2396.309,3.385,0.0163,0.0169,0.0181,0.004,0.0000,2.9422,-0.0182,0.1040,7,49.2274361,16.5749841,328.552,9,0.000,14,9,3,0.000,0.00109,0.00001,0.00001,0.0000
312160000,-1300.250,2396.309,3.386,0.0163,0.0169,0.0181,0.004,0.0000,2.9422,-0.0182,0.1040,7,49.2274361,16.5749841,328.552,9,0.000,14,9,3,0.000,0.00109,0.00001,0.00001,0.0000
312160020,-1300.250,2396.309,3.385,0.0163,0.0169,0.0181,0.004,0.0000,2.9422,-0.0182,0.1039,7,49.2274361,16.5749841,328.551,9,0.000,14,9,3,0.000,0.00109,0.00001,0.00001,0.0000
312160040,-1300.250,2396.309,3.385,0.0163,0.0169,0.0181,0.004,0.0000,2.9422,-0.0182,0.1039,7,49.2274361,16.5749841,328.551,9,0.000,14,9,3,0.000,0.00109,0.00001,0.00001,0.0000
312160060,-1300.250,2396.309,3.385,0.0164,0.0169,0.0181,0.004,0.0000,2.9422,-0.0182,0.1040,7,49.2274361,16.5749841,328.551,9,0.000,14,9,3,0.000,0.00109,0.00001,0.00001,0.0000
312160080,-1300.250,2396.309,3.385,0.0164,0.0169,0.0181,0.004,0.0000,2.9422,-0.0182,0.1040,7,49.2274361,16.5749841,328.551,9,0.001,14,9,3,0.000,0.00109,0.00001,0.00001,0.0000
312160100,-1300.250,2396.309,3.385,0.0164,0.0169,0.0181,0.004,0.0000,2.9422,-0.0182,0.1041,7,49.2274361,16.5749841,328.551,9,0.000,14,9,3,0.000,0.00109,0.00001,0.00001,0.0000
312160120,-1300.250,2396.309,3.385,0.0164,0.0169,0.0181,0.004,0.0000,2.9423,-0.0182,0.1040,7,49.2274361,16.5749841,328.551,9,0.000,14,9,3,0.000,0.00109,0.00001,0.00001,0.0000
312160140,-1300.250,2396.309,3.384,0.0164,0.0169,0.0181,0.004,0.0000,2.9422,-0.0182,0.1040,7,49.2274361,16.5749841,328.551,9,0.000,14,9,3,0.000,0.00109,0.00001,0.00001,0.0000
312160160,-1300.250,2396.309,3.384,0.0164,0.0169,0.0181,0.004,0.0000,2.9422,-0.0182,0.1040,7,49.2274361,16.5749841,328.550,9,0.000,14,9,3,0.000,0.00109,0.00001,0.00001,0.0000
312160180,-1300.250,2396.308,3.384,0.0164,0.0169,0.0181,0.004,0.0000,2.9422,-0.0182,0.1040,7,49.2274361,16.5749841,328.550,9,0.000,14,9,3,0.000,0.00109,0.00001,0.00001,0.0000
312160200,-1300.250,2396.308,3.384,0.0164,0.0169,0.0181,0.004,0.0000,2.9422,-0.0182,0.1040,7,49.2274361,16.5749841,328.550,9,0.000,14,9,3,0.000,0.00109,0.00001,0.00001,0.0000
312160220,-1300.250,2396.308,3.384,0.0164,0.0169,0.0181,0.004,0.0000,2.9422,-0.0182,0.1041,7,49.2274361,16.5749841,328.550,9,0.000,14,9,3,0.000,0.00109,0.00001,0.00001,0.0000
312160240,-1300.250,2396.308,3.383,0.0164,0.0169,0.0181,0.004,0.0000,2.9423,-0.0182,0.1041,7,49.2274361,16.5749841,328.550,9,0.000,14,9,3,0.000,0.00110,0.00001,0.00001,0.0000
312160260,-1300.250,2396.308,3.383,0.0164,0.0169,0.0181,0.004,0.0000,2.9422,-0.0182,0.1040,7,49.2274361,16.5749841,328.549,9,0.000,14,9,3,0.000,0.00110,0.00001,0.00001,0.0000
312160280,-1300.250,2396.308,3.383,0.0164,0.0169,0.0181,0.004,0.0000,2.9423,-0.0182,0.1040,7,49.2274361,16.5749841,328.549,9,0.000,14,9,3,0.000,0.00110,0.00001,0.00001,0.0000
312160300,-1300.250,2396.308,3.383,0.0164,0.0169,0.0181,0.004,0.0000,2.9422,-0.0182,0.1039,7,49.2274361,16.5749841,328.549,9,0.000,14,9,3,0.000,0.00110,0.00001,0.00001,0.0000
312160320,-1300.250,2396.308,3.383,0.0164,0.0169,0.0181,0.004,0.0000,2.9422,-0.0182,0.1040,7,49.2274361,16.5749841,328.549,9,0.000,14,9,3,0.000,0.00110,0.00001,0.00001,0.0000
312160340,-1300.250,2396.308,3.382,0.0164,0.0169,0.0181,0.005,0.0000,2.9422,-0.0182,0.1040,7,49.2274361,16.5749841,328.549,9,-0.001,14,9,3,0.000,0.00110,0.00001,0.00001,0.0000
312160360,-1300.250,2396.308,3.382,0.0164,0.0169,0.0181,0.004,0.0000,2.9422,-0.0182,0.1041,7,49.2274361,16.5749841,328.548,9,0.000,14,9,3,0.000,0.00110,0.00001,0.00001,0.0000
312160380,-1300.250,2396.308,3.382,0.0164,0.0169,0.0181,0.004,0.0000,2.9422,-0.0182,0.1040,7,49.2274361,16.5749841,328.548,9,0.000,14,9,3,0.000,0.00110,0.00001,0.00001,0.0000
312160400,-1300.250,2396.308,3.382,0.0164,0.0169,0.0181,0.004,0.0000,2.9422,-0.0182,0.1039,7,49.2274361,16.5749841,328.548,9,0.000,14,9,3,0.000,0.00110,0.00001,0.00001,0.0000
312160420,-1300.250,2396.307,3.382,0.0164,0.0169,0.0181,0.005,0.0000,2.9422,-0.0182,0.1039,7,49.2274361,16.5749841,328.548,9,0.000,14,9,3,0.000,0.00110,0.00001,0.00001,0.0000
312160440,-1300.250,2396.307,3.381,0.0164,0.0169,0.0181,0.004,0.0000,2.9422,-0.0182,0.1039,7,49.2274361,16.5749841,328.548,9,-0.001,14,9,3,0.000,0.00110,0.00001,0.00001,0.0000
312160460,-1300.249,2396.307,3.381,0.0164,0.0169,0.0181,0.004,0.0000,2.9422,-0.0182,0.1040,7,49.2274361,16.5749841,328.547,9,-0.001,14,9,3,0.000,0.00110,0.00001,0.00001,0.0000
312160480,-1300.249,2396.307,3.381,0.0164,0.0169,0.0181,0.004,0.0000,2.9422,-0.0182,0.1040,7,49.2274361,16.5749841,328.547,9,0.000,14,9,3,0.000,0.00110,0.00001,0.00001,0.0000
312160500,-1300.249,2396.307,3.381,0.0164,0.0169,0.0181,0.004,0.0000,2.9422,-0.0182,0.1040,7,49.2274361,16.5749841,328.547,9,0.000,14,9,3,0.000,0.00110,0.00001,0.00001,0.0000
312160520,-1300.249,2396.307,3.381,0.0164,0.0169,0.0181,0.004,0.0000,2.9422,-0.0182,0.1039,7,49.2274361,16.5749841,328.547,9,0.000,14,9,3,0.000,0.00110,0.00001,0.00001,0.0000
312160540,-1300.249,2396.307,3.381,0.0164,0.0169,0.0181,0.004,0.0000,2.9422,-0.0182,0.1039,7,49.2274361,16.5749841,328.547,9,-0.001,14,9,3,0.000,0.00110,0.00001,0.00001,0.0000
312160560,-1300.249,2396.307,3.380,0.0164,0.0169,0.0181,0.004,0.0000,2.9422,-0.0182,0.1039,7,49.2274361,16.5749841,328.546,9,0.000,14,9,3,0.000,0.00110,0.00001,0.00001,0.0000
312160580,-1300.249,2396.307,3.380,0.0164,0.0169,0.0181,0.004,0.0000,2.9422,-0.0182,0.1040,7,49.2274361,16.5749841,328.546,9,-0.001,14,9,3,0.000,0.00110,0.00001,0.00001,0.0000
312160600,-1300.249,2396.307,3.380,0.0164,0.0169,0.0181,0.004,0.0000,2.9422,-0.0182,0.1041,7,49.2274361,16.5749841,328.546,9,-0.001,14,9,3,0.000,0.00110,0.00001,0.00001,0.0000
312160620,-1300.249,2396.307,3.380,0.0164,0.0169,0.0181,0.004,0.0000,2.9422,-0.0182,0.1040,7,49.2274361,16.5749841,328.546,9,0.000,14,9,3,0.000,0.00110,0.00001,0.00001,0.0000
312160640,-1300.249,2396.307,3.380,0.0164,0.0169,0.0181,0.003,0.0000,2.9422,-0.0182,0.1040,7,49.2274361,16.5749841,328.546,9,-0.001,14,9,3,0.000,0.00110,0.00001,0.00001,0.0000
312160660,-1300.249,2396.307,3.380,0.0164,0.0169,0.0181,0.004,0.0000,2.9422,-0.0182,0.1040,7,49.2274361,16.5749841,328.546,9,0.000,14,9,3,0.000,0.00110,0.00001,0.00001,0.0000
312160680,-1300.249,2396.306,3.380,0.0164,0.0169,0.0181,0.004,0.0000,2.9422,-0.0182,0.1040,7,49.2274361,16.5749841,328.546,9,-0.001,14,9,3,0.000,0.00111,0.00001,0.00001,0.0000
312160700,-1300.249,2396.306,3.380,0.0164,0.0169,0.0181,0.004,0.0000,2.9422,-0.0182,0.1040,7,49.2274361,16.5749841,328.546,9,-0.001,14,9,3,0.000,0.00111,0.00001,0.00001,0.0000
312160720,-1300.249,2396.306,3.380,0.0164,0.0169,0.0181,0.004,0.0000,2.9422,-0.0182,0.1041,7,49.2274361,16.5749841,328.546,9,-0.001,14,9,3,0.000,0.00111,0.00001,0.00001,0.0000
312160740,-1300.249,2396.306,3.379,0.0164,0.0169,0.0181,0.004,0.0000,2.9422,-0.0182,0.1041,7,49.2274361,16.5749841,328.546,9,-0.001,14,9,3,0.000,0.00111,0.00001,0.00001,0.0000
312160760,-1300.249,2396.306,3.379,0.0164,0.0169,0.0181,0.004,0.0000,2.9422,-0.0182,0.1040,7,49.2274361,16.5749841,328.545,9,-0.001,14,9,3,0.000,0.00111,0.00001,0.00001,0.0000
312160780,-1300.249,2396.306,3.379,0.0164,0.0169,0.0181,0.004,0.0000,2.9422,-0.0182,0.1039,7,49.2274361,16.5749841,328.545,9,-0.001,14,9,3,0.000,0.00111,0.00001,0.00001,0.0000
312160800,-1300.249,2396.306,3.379,0.0164,0.0169,0.0181,0.004,0.0000,2.9422,-0.0182,0.1039,7,49.2274361,16.5749841,328.545,9,-0.001,14,9,3,0.000,0.00111,0.00001,0.00001,0.0000
312160820,-1300.249,2396.306,3.379,0.0164,0.0169,0.0181,0.004,0.0000,2.9422,-0.0182,0.1040,7,49.2274361,16.5749841,328.545,9,-0.001,14,9,3,0.000,0.00111,0.00001,0.00001,0.0000
312160840,-1300.249,2396.306,3.378,0.0164,0.0169,0.0181,0.004,0.0000,2.9422,-0.0182,0.1041,7,49.2274361,16.5749841,328.544,9,-0.001,14,9,3,0.000,0.00112,0.00001,0.00001,0.0000
312160860,-1300.249,2396.307,3.378,0.0164,0.0169,0.0181,0.004,0.0000,2.9422,-0.0183,0.1041,7,49.2274361,16.5749841,328.544,9,-0.001,14,9,3,0.000,0.00112,0.00001,0.00001,0.0000
312160880,-1300.249,2396.307,3.377,0.0164,0.0169,0.0181,0.004,0.0000,2.9422,-0.0183,0.1040,7,49.2274361,16.5749841,328.543,9,-0.001,14,9,3,0.000,0.00112,0.00001,0.00001,0.0000
312160900,-1300.249,2396.307,3.377,0.0164,0.0169,0.0181,0.004,0.0000,2.9422,-0.0183,0.1039,7,49.2274361,16.5749841,328.543,9,-0.001,14,9,3,0.000,0.00112,0.00001,0.00001,0.0000
312160920,-1300.249,2396.307,3.376,0.0164,0.0169,0.0181,0.004,0.0000,2.9422,-0.0182,0.1039,7,49.2274361,16.5749841,328.542,9,-0.001,14,9,3,0.000,0.00112,0.00001,0.00001,0.0000
312160940,-1300.249,2396.307,3.376,0.0164,0.0169,0.0181,0.004,0.0000,2.9422,-0.0182,0.1040,7,49.2274361,16.5749841,328.542,9,-0.001,14,9,3,0.000,0.00112,0.00001,0.00001,0.0000
312160960,-1300.249,2396.307,3.375,0.0164,0.0169,0.0181,0.004,0.0000,2.9422,-0.0182,0.1040,7,49.2274361,16.5749841,328.541,9,-0.001,14,9,3,0.000,0.00112,0.00001,0.00001,0.0000
312160980,-1300.249,2396.307,3.375,0.0164,0.0169,0.0181,0.004,0.0000,2.9422,-0.0182,0.1041,7,49.2274361,16.5749841,328.541,9,-0.001,14,9,3,0.000,0.00112,0.00001,0.00001,0.0000
312161000,-1300.249,2396.307,3.374,0.0164,0.0169,0.0181,0.004,0.0000,2.9422,-0.0182,0.1040,7,49.2274361,16.5749841,328.540,9,-0.001,14,9,3,0.000,0.00112,0.00001,0.00001,0.0000
312161020,-1300.249,2396.307,3.374,0.0164,0.0169,0.0181,0.004,0.0000,2.9422,-0.0182,0.1040,7,49.2274361,16.5749841,328.540,9,-0.002,14,9,3,0.000,0.00112,0.00001,0.00001,0.0000
312161040,-1300.249,2396.307,3.374,0.0164,0.0169,0.0181,0.004,0.0000,2.9422,-0.0182,0.1039,7,49.2274361,16.5749841,328.540,9,-0.001,14,9,3,0.000,0.00112,0.00001,0.00001,0.0000
312161060,-1300.249,2396.307,3.374,0.0164,0.0169,0.0181,0.004,0.0000,2.9422,-0.0182,0.1039,7,49.2274361,16.5749841,328.540,9,-0.002,14,9,3,0.000,0.00112,0.00001,0.00001,0.0000
312161080,-1300.249,2396.307,3.374,0.0164,0.0169,0.0181,0.004,0.0000,2.9422,-0.0182,0.1039,7,49.2274361,16.5749841,328.540,9,-0.002,14,9,3,0.000,0.00112,0.00001,0.00001,0.0000
312161100,-1300.249,2396.307,3.373,0.0164,0.0169,0.0181,0.004,0.0000,2.9422,-0.0182,0.1040,7,49.2274361,16.5749841,328.540,9,-0.002,14,9,3,0.000,0.00112,0.00001,0.00001,0.0000
312161120,-1300.249,2396.307,3.373,0.0164,0.0169,0.0181,0.004,0.0000,2.9422,-0.0182,0.1040,7,49.2274361,16.5749841,328.539,9,-0.002,14,9,3,0.000,0.00112,0.00001,0.00001,0.0000
312161140,-1300.249,2396.307,3.373,0.0164,0.0169,0.0181,0.004,0.0000,2.9422,-0.0182,0.1040,7,49.2274361,16.5749841,328.539,9,-0.002,14,9,3,0.000,0.00112,0.00001,0.00001,0.0000
312161160,-1300.249,2396.307,3.373,0.0164,0.0169,0.0181,0.004,0.0000,2.9422,-0.0182,0.1039,7,49.2274361,16.5749841,328.539,9,-0.002,14,9,3,0.000,0.00112,0.00001,0.00001,0.0000
312161180,-1300.249,2396.307,3.373,0.0164,0.0169,0.0181,0.004,0.0000,2.9422,-0.0182,0.1039,7,49.2274361,16.5749841,328.539,9,-0.002,14,9,3,0.000,0.00112,0.00001,0.00001,0.0000
312161200,-1300.249,2396.307,3.373,0.0164,0.0169,0.0181,0.004,0.0000,2.9421,-0.0182,0.1039,7,49.2274361,16.5749841,328.539,9,-0.002,14,9,3,0.000,0.00112,0.00001,0.00001,0.0000
312161220,-1300.249,2396.307,3.373,0.0164,0.0169,0.0181,0.004,0.0000,2.9421,-0.0182,0.1040,7,49.2274361,16.5749841,328.539,9,-0.002,14,9,3,0.000,0.00112,0.00001,0.00001,0.0000
312161240,-1300.249,2396.307,3.372,0.0164,0.0169,0.0181,0.003,0.0000,2.9421,-0.0182,0.1040,7,49.2274361,16.5749841,328.539,9,-0.002,14,9,3,0.000,0.00113,0.00001,0.00001,0.0000
312161260,-1300.248,2396.307,3.372,0.0164,0.0169,0.0181,0.003,0.0000,2.9421,-0.0183,0.1040,7,49.2274361,16.5749841,328.538,9,-0.002,14,9,3,0.000,0.00113,0.00001,0.00001,0.0000
312161280,-1300.248,2396.307,3.372,0.0164,0.0169,0.0181,0.004,0.0000,2.9421,-0.0183,0.1040,7,49.2274361,16.5749841,328.538,9,-0.002,14,9,3,0.000,0.00113,0.00001,0.00001,0.0000
312161300,-1300.248,2396.307,3.372,0.0164,0.0169,0.0181,0.003,0.0000,2.9421,-0.0183,0.1039,7,49.2274361,16.5749841,328.538,9,-0.002,14,9,3,0.000,0.00113,0.00001,0.00001,0.0000
312161320,-1300.248,2396.307,3.372,0.0164,0.0169,0.0181,0.003,0.0000,2.9421,-0.0183,0.1039,7,49.2274361,16.5749841,328.538,9,-0.002,14,9,3,0.000,0.00113,0.00001,0.00001,0.0000
312161340,-1300.248,2396.307,3.372,0.0164,0.0169,0.0181,0.004,0.0000,2.9421,-0.0183,0.1040,7,49.2274361,16.5749841,328.538,9,-0.002,14,9,3,0.000,0.00113,0.00001,0.00001,0.0000
312161360,-1300.248,2396.307,3.372,0.0164,0.0169,0.0181,0.003,0.0000,2.9421,-0.0183,0.1040,7,49.2274361,16.5749841,328.538,9,-0.002,14,9,3,0.000,0.00113,0.00001,0.00001,0.0000
312161380,-1300.248,2396.307,3.372,0.0164,0.0169,0.0181,0.003,0.0000,2.9421,-0.0183,0.1041,7,49.2274361,16.5749841,328.538,9,-0.002,14,9,3,0.000,0.00113,0.00001,0.00001,0.0000
312161400,-1300.248,2396.307,3.372,0.0164,0.0169,0.0181,0.003,0.0000,2.9421,-0.0183,0.1040,7,49.2274361,16.5749841,328.538,9,-0.002,14,9,3,0.000,0.00113,0.00001,0.00001,0.0000
312161420,-1300.248,2396.307,3.372,0.0164,0.0169,0.0181,0.003,0.0000,2.9421,-0.0183,0.1040,7,49.2274361,16.5749841,328.538,9,-0.002,14,9,3,0.000,0.00113,0.00001,0.00001,0.0000
312161440,-1300.248,2396.306,3.372,0.0164,0.0169,0.0181,0.003,0.0000,2.9421,-0.0183,0.1039,7,49.2274361,16.5749841,328.538,9,-0.002,14,9,3,0.000,0.00114,0.00001,0.00001,0.0000
312161460,-1300.248,2396.306,3.372,0.0164,0.0169,0.0181,0.003,0.0000,2.9421,-0.0183,0.1039,7,49.2274361,16.5749841,328.538,9,-0.003,14,9,3,0.000,0.00114,0.00001,0.00001,0.0000
312161480,-1300.248,2396.306,3.372,0.0164,0.0169,0.0181,0.003,0.0000,2.9421,-0.0183,0.1040,7,49.2274361,16.5749841,328.538,9,-0.003,14,9,3,0.000,0.00114,0.00001,0.00001,0.0000
312161500,-1300.248,2396.306,3.372,0.0164,0.0169,0.0181,0.003,0.0000,2.9421,-0.0183,0.1040,7,49.2274361,16.5749841,328.538,9,-0.003,14,9,3,0.000,0.00114,0.00001,0.00001,0.0000
312161520,-1300.248,2396.306,3.372,0.0164,0.0169,0.0181,0.003,0.0000,2.9421,-0.0183,0.1039,7,49.2274361,16.5749841,328.538,9,-0.003,14,9,3,0.000,0.00114,0.00001,0.00001,0.0000
312161540,-1300.248,2396.306,3.372,0.0164,0.0169,0.0181,0.003,0.0000,2.9421,-0.0183,0.1039,7,49.2274361,16.5749841,328.538,9,-0.002,14,9,3,0.000,0.00114,0.00001,0.00001,0.0000
312161560,-1300.247,2396.306,3.372,0.0164,0.0169,0.0181,0.003,0.0000,2.9421,-0.0183,0.1039,7,49.2274361,16.5749841,328.538,9,-0.002,14,9,3,0.000,0.00114,0.00001,0.00001,0.0000
312161580,-1300.247,2396.306,3.372,0.0164,0.0169,0.0181,0.003,0.0000,2.9421,-0.0183,0.1039,7,49.2274361,16.5749841,328.538,9,-0.002,14,9,3,0.000,0.00114,0.00001,0.00001,0.0000
312161600,-1300.247,2396.306,3.372,0.0164,0.0169,0.0181,0.002,0.0000,2.9421,-0.0183,0.1039,7,49.2274361,16.5749841,328.538,9,-0.002,14,9,3,0.000,0.00114,0.00001,0.00001,0.0000
312161620,-1300.247,2396.306,3.372,0.0164,0.0169,0.0181,0.003,0.0000,2.9421,-0.0183,0.1039,7,49.2274361,16.5749841,328.538,9,-0.003,14,9,3,0.000,0.00114,0.00001,0.00001,0.0000
312161640,-1300.247,2396.306,3.372,0.0164,0.0169,0.0181,0.002,0.0000,2.9421,-0.0183,0.1039,7,49.2274361,16.5749841,328.538,9,-0.002,14,9,3,0.000,0.00114,0.00001,0.00001,0.0000
312161660,-1300.247,2396.306,3.372,0.0164,0.0169,0.0181,0.002,0.0000,2.9421,-0.0183,0.1038,7,49.2274361,16.5749841,328.538,9,-0.002,14,9,3,0.000,0.00114,0.00001,0.00001,0.0000
312161680,-1300.247,2396.306,3.372,0.0164,0.0169,0.0181,0.002,0.0000,2.9420,-0.0183,0.1038,7,49.2274361,16.5749841,328.538,9,-0.002,14,9,3,0.000,0.00114,0.00001,0.00001,0.0000
312161700,-1300.247,2396.306,3.372,0.0164,0.0169,0.0181,0.003,0.0000,2.9420,-0.0183,0.1038,7,49.2274361,16.5749841,328.538,9,-0.003,14,9,3,0.000,0.00114,0.00001,0.00001,0.0000
312161720,-1300.247,2396.306,3.371,0.0164,0.0169,0.0181,0.002,0.0000,2.9420,-0.0184,0.1038,7,49.2274361,16.5749841,328.538,9,-0.003,14,9,3,0.000,0.00114,0.00001,0.00001,0.0000
312161740,-1300.247,2396.306,3.371,0.0164,0.0169,0.0181,0.003,0.0000,2.9420,-0.0184,0.1039,7,49.2274361,16.5749841,328.537,9,-0.003,14,9,3,0.000,0.00114,0.00001,0.00001,0.0000
312161760,-1300.247,2396.306,3.371,0.0164,0.0169,0.0181,0.002,0.0000,2.9420,-0.0184,0.1039,7,49.2274361,16.5749841,328.537,9,-0.003,14,9,3,0.000,0.00114,0.00001,0.00001,0.0000
312161780,-1300.247,2396.305,3.371,0.0164,0.0169,0.0181,0.002,0.0000,2.9420,-0.0184,0.1039,7,49.2274361,16.5749841,328.537,9,-0.003,14,9,3,0.000,0.00114,0.00001,0.00001,0.0000
312161800,-1300.247,2396.305,3.371,0.0164,0.0169,0.0181,0.002,0.0000,2.9420,-0.0184,0.1038,7,49.2274361,16.5749841,328.537,9,-0.002,14,9,3,0.000,0.00114,0.00001,0.00001,0.0000
312161820,-1300.247,2396.305,3.371,0.0164,0.0169,0.0181,0.003,0.0000,2.9420,-0.0184,0.1037,7,49.2274361,16.5749841,328.537,9,-0.002,14,9,3,0.000,0.00114,0.00001,0.00001,0.0000
312161840,-1300.247,2396.305,3.371,0.0164,0.0169,0.0181,0.003,0.0000,2.9420,-0.0184,0.1038,7,49.2274361,16.5749841,328.537,9,-0.003,14,9,3,0.000,0.00115,0.00001,0.00001,0.0000
312161860,-1300.247,2396.305,3.371,0.0164,0.0169,0.0181,0.002,0.0000,2.9420,-0.0183,0.1038,7,49.2274361,16.5749841,328.537,9,-0.003,14,9,3,0.000,0.00115,0.00001,0.00001,0.0000
312161880,-1300.247,2396.305,3.370,0.0164,0.0169,0.0181,0.002,0.0000,2.9420,-0.0183,0.1039,7,49.2274361,16.5749841,328.537,9,-0.003,14,9,3,0.000,0.00115,0.00001,0.00001,0.0000
312161900,-1300.247,2396.305,3.370,0.0164,0.0169,0.0181,0.002,0.0000,2.9420,-0.0183,0.1039,7,49.2274361,16.5749841,328.536,9,-0.003,14,9,3,0.000,0.00115,0.00001,0.00001,0.0000
312161920,-1300.247,2396.305,3.370,0.0164,0.0169,0.0181,0.002,0.0000,2.9420,-0.0183,0.1039,7,49.2274361,16.5749841,328.536,9,-0.003,14,9,3,0.000,0.00115,0.00001,0.00001,0.0000
312161940,-1300.247,2396.305,3.370,0.0164,0.0169,0.0181,0.002,0.0000,2.9420,-0.0183,0.1038,7,49.2274361,16.5749841,328.536,9,-0.003,14,9,3,0.000,0.00115,0.00001,0.00001,0.0000
312161960,-1300.247,2396.305,3.370,0.0164,0.0169,0.0181,0.002,0.0000,2.9420,-0.0183,0.1037,7,49.2274361,16.5749841,328.536,9,-0.003,14,9,3,0.000,0.00115,0.00001,0.00001,0.0000
312161980,-1300.247,2396.305,3.370,0.0164,0.0169,0.0181,0.002,0.0000,2.9420,-0.0183,0.1038,7,49.2274361,16.5749841,328.536,9,-0.003,14,9,3,0.000,0.00115,0.00001,0.00001,0.0000
312162000,-1300.247,2396.305,3.370,0.0164,0.0169,0.0181,0.003,0.0000,2.9420,-0.0183,0.1038,7,49.2274361,16.5749841,328.536,9,-0.003,14,9,3,0.000,0.00115,0.00001,0.00001,0.0000
312162020,-1300.247,2396.305,3.370,0.0164,0.0169,0.0181,0.002,0.0000,2.9420,-0.0183,0.1039,7,49.2274361,16.5749841,328.536,9,-0.003,14,9,3,0.000,0.00115,0.00001,0.00001,0.0000
312162040,-1300.247,2396.305,3.369,0.0164,0.0169,0.0181,0.003,0.0000,2.9420,-0.0183,0.1039,7,49.2274361,16.5749841,328.535,9,-0.003,14,9,3,0.000,0.00115,0.00001,0.00001,0.0000
312162060,-1300.248,2396.305,3.369,0.0164,0.0169,0.0181,0.002,0.0000,2.9420,-0.0183,0.1039,7,49.2274361,16.5749841,328.535,9,-0.004,14,9,3,0.000,0.00116,0.00001,0.00001,0.0000
312162080,-1300.248,2396.305,3.369,0.0164,0.0169,0.0181,0.003,0.0000,2.9420,-0.0183,0.1039,7,49.2274361,16.5749841,328.535,9,-0.004,14,9,3,0.000,0.00116,0.00001,0.00001,0.0000
312162100,-1300.248,2396.305,3.369,0.0164,0.0169,0.0181,0.003,0.0000,2.9420,-0.0183,0.1039,7,49.2274361,16.5749841,328.535,9,-0.004,14,9,3,0.000,0.00116,0.00001,0.00001,0.0000
312162120,-1300.248,2396.304,3.368,0.0164,0.0169,0.0181,0.003,0.0000,2.9420,-0.0183,0.1038,7,49.2274361,16.5749841,328.534,9,-0.004,14,9,3,0.000,0.00116,0.00001,0.00001,0.0000
312162140,-1300.248,2396.304,3.368,0.0164,0.0169,0.0181,0.003,0.0000,2.9420,-0.0183,0.1039,7,49.2274360,16.5749841,328.534,9,-0.004,14,9,3,0.000,0.00116,0.00001,0.00001,0.0000
312162160,-1300.248,2396.304,3.368,0.0164,0.0169,0.0181,0.003,0.0000,2.9420,-0.0183,0.1039,7,49.2274360,16.5749841,328.534,9,-0.004,14,9,3,0.000,0.00116,0.00001,0.00001,0.0000
312162180,-1300.248,2396.304,3.368,0.0164,0.0169,0.0181,0.004,0.0000,2.9420,-0.0184,0.1039,7,49.2274360,16.5749841,328.534,9,-0.004,14,9,3,0.000,0.00116,0.00001,0.00001,0.0000
312162200,-1300.249,2396.304,3.367,0.0164,0.0169,0.0181,0.004,0.0000,2.9420,-0.0184,0.1040,7,49.2274360,16.5749841,328.534,9,-0.004,14,9,3,0.000,0.00116,0.00001,0.00001,0.0000
312162220,-1300.249,2396.304,3.367,0.0164,0.0169,0.0181,0.003,0.0000,2.9420,-0.0184,0.1040,7,49.2274360,16.5749841,328.534,9,-0.004,14,9,3,0.000,0.00116,0.00001,0.00001,0.0000
312162240,-1300.249,2396.304,3.368,0.0164,0.0169,0.0181,0.003,0.0000,2.9420,-0.0184,0.1039,7,49.2274360,16.5749841,328.534,9,-0.004,14,9,3,0.000,0.00116,0.00001,0.00001,0.0000
312162260,-1300.249,2396.303,3.368,0.0164,0.0169,0.0181,0.003,0.0000,2.9420,-0.0184,0.1039,7,49.2274360,16.5749841,328.534,9,-0.004,14,9,3,0.000,0.00116,0.00001,0.00001,0.0000
312162280,-1300.249,2396.303,3.368,0.0164,0.0169,0.0181,0.003,0.0000,2.9420,-0.0184,0.1040,7,49.2274360,16.5749841,328.534,9,-0.004,14,9,3,0.000,0.00116,0.00001,0.00001,0.0000
312162300,-1300.249,2396.303,3.368,0.0164,0.0169,0.0181,0.003,0.0000,2.9419,-0.0183,0.1040,7,49.2274360,16.5749841,328.534,9,-0.004,14,9,3,0.000,0.00116,0.00001,0.00001,0.0000
312162320,-1300.249,2396.303,3.368,0.0164,0.0169,0.0181,0.004,0.0000,2.9419,-0.0183,0.1040,7,49.2274360,16.5749841,328.534,9,-0.004,14,9,3,0.000,0.00116,0.00001,0.00001,0.0000
312162340,-1300.249,2396.303,3.368,0.0164,0.0169,0.0181,0.004,0.0000,2.9419,-0.0183,0.1039,7,49.2274360,16.5749841,328.534,9,-0.004,14,9,3,0.000,0.00116,0.00001,0.00001,0.0000
312162360,-1300.249,2396.302,3.368,0.0164,0.0169,0.0181,0.004,0.0000,2.9419,-0.0184,0.1039,7,49.2274360,16.5749841,328.534,9,-0.004,14,9,3,0.000,0.00116,0.00001,0.00001,0.0000
312162380,-1300.249,2396.302,3.368,0.0164,0.0169,0.0181,0.004,0.0000,2.9419,-0.0183,0.1039,7,49.2274360,16.5749841,328.534,9,-0.004,14,9,3,0.000,0.00116,0.00001,0.00001,0.0000
312162400,-1300.249,2396.302,3.368,0.0164,0.0169,0.0181,0.004,0.0000,2.9419,-0.0184,0.1039,7,49.2274360,16.5749841,328.534,9,-0.004,14,9,3,0.000,0.00116,0.00001,0.00001,0.0000
312162420,-1300.249,2396.302,3.368,0.0164,0.0169,0.0181,0.004,0.0000,2.9420,-0.0184,0.1039,7,49.2274360,16.5749841,328.534,9,-0.004,14,9,3,0.000,0.00116,0.00001,0.00001,0.0000
312162440,-1300.249,2396.302,3.368,0.0164,0.0169,0.0181,0.004,0.0000,2.9420,-0.0184,0.1039,7,49.2274360,16.5749841,328.534,9,-0.004,14,9,3,0.000,0.00117,0.00001,0.00001,0.0000
312162460,-1300.249,2396.302,3.368,0.0164,0.0169,0.0181,0.005,0.0000,2.9420,-0.0184,0.1039,7,49.2274360,16.5749841,328.534,9,-0.004,14,9,3,0.000,0.00117,0.00001,0.00001,0.0000
312162480,-1300.249,2396.302,3.368,0.0164,0.0169,0.0181,0.004,0.0000,2.9420,-0.0184,0.1039,7,49.2274360,16.5749841,328.534,9,-0.004,14,9,3,0.000,0.00117,0.00001,0.00001,0.0000
312162500,-1300.249,2396.301,3.368,0.0164,0.0169,0.0181,0.004,0.0000,2.9420,-0.0184,0.1039,7,49.2274360,16.5749841,328.534,9,-0.004,14,9,3,0.000,0.00117,0.00001,0.00001,0.0000
312162520,-1300.249,2396.301,3.368,0.0164,0.0169,0.0181,0.005,0.0000,2.9420,-0.0184,0.1039,7,49.2274360,16.5749841,328.534,9,-0.004,14,9,3,0.000,0.00117,0.00001,0.00001,0.0000
312162540,-1300.249,2396.301,3.368,0.0164,0.0169,0.0181,0.004,0.0000,2.9420,-0.0184,0.1039,7,49.2274360,16.5749841,328.534,9,-0.004,14,9,3,0.000,0.00117,0.00001,0.00001,0.0000
312162560,-1300.249,2396.301,3.367,0.0164,0.0169,0.0181,0.004,0.0000,2.9420,-0.0184,0.1039,7,49.2274360,16.5749841,328.534,9,-0.004,14,9,3,0.000,0.00117,0.00001,0.00001,0.0000
312162580,-1300.249,2396.301,3.367,0.0164,0.0169,0.0181,0.004,0.0000,2.9420,-0.0184,0.1038,7,49.2274360,16.5749841,328.534,9,-0.004,14,9,3,0.000,0.00117,0.00001,0.00001,0.0000
312162600,-1300.249,2396.301,3.367,0.0164,0.0169,0.0181,0.005,0.0000,2.9420,-0.0184,0.1037,7,49.2274360,16.5749841,328.534,9,-0.004,14,9,3,0.000,0.00117,0.00001,0.00001,0.0000
312162620,-1300.249,2396.301,3.367,0.0164,0.0169,0.0181,0.005,0.0000,2.9420,-0.0184,0.1037,7,49.2274360,16.5749841,328.534,9,-0.004,14,9,3,0.000,0.00117,0.00001,0.00001,0.0000
312162640,-1300.249,2396.301,3.368,0.0164,0.0169,0.0181,0.005,0.0000,2.9419,-0.0184,0.1037,7,49.2274360,16.5749841,328.534,9,-0.004,14,9,3,0.000,0.00117,0.00001,0.00001,0.0000
312162660,-1300.249,2396.301,3.368,0.0164,0.0169,0.0181,0.005,0.0000,2.9419,-0.0184,0.1037,7,49.2274360,16.5749841,328.534,9,-0.004,14,9,3,0.000,0.00117,0.00001,0.00001,0.0000
312162680,-1300.249,2396.301,3.368,0.0164,0.0169,0.0181,0.005,4.2035,2.9419,-0.0184,0.1037,7,49.2274360,16.5749841,328.534,9,-0.004,14,9,3,0.000,0.00118,0.00001,0.00001,0.0000
312162700,-1300.249,2396.301,3.368,0.0164,0.0169,0.0181,0.005,4.1807,2.9419,-0.0184,0.1038,7,49.2274360,16.5749841,328.534,9,-0.004,14,9,3,0.000,0.00118,0.00001,0.00001,0.0000
312162720,-1300.249,2396.300,3.368,0.0164,0.0169,0.0181,0.005,4.1955,2.9419,-0.0184,0.1039,7,49.2274360,16.5749841,328.534,9,-0.004,14,9,3,0.000,0.00118,0.00001,0.00001,0.0000
312162740,-1300.249,2396.300,3.368,0.0164,0.0169,0.0181,0.005,4.1756,2.9419,-0.0184,0.1040,7,49.2274360,16.5749841,328.534,9,-0.004,14,9,3,0.000,0.00118,0.00001,0.00001,0.0000
312162760,-1300.249,2396.300,3.368,0.0164,0.0169,0.0181,0.005,0.0000,2.9419,-0.0184,0.1040,7,49.2274360,16.5749841,328.534,9,-0.004,14,9,3,0.000,0.00118,0.00001,0.00001,0.0000
312162780,-1300.249,2396.300,3.368,0.0164,0.0169,0.0181,0.005,0.0000,2.9419,-0.0184,0.1039,7,49.2274360,16.5749841,328.534,9,-0.003,14,9,3,0.000,0.00118,0.00001,0.00001,0.0000
312162800,-1300.249,2396.300,3.368,0.0164,0.0169,0.0181,0.005,4.1800,2.9419,-0.0184,0.1038,7,49.2274360,16.5749841,328.534,9,-0.004,14,9,3,0.000,0.00118,0.00001,0.00001,0.0000
312162820,-1300.249,2396.300,3.368,0.0164,0.0169,0.0181,0.005,4.1515,2.9419,-0.0184,0.1039,7,49.2274360,16.5749841,328.534,9,-0.004,14,9,3,0.000,0.00118,0.00001,0.00001,0.0000
312162840,-1300.249,2396.300,3.368,0.0164,0.0169,0.0181,0.005,4.2210,2.9419,-0.0184,0.1040,7,49.2274360,16.5749841,328.534,9,-0.004,14,9,3,0.000,0.00118,0.00001,0.00001,0.0000
312162860,-1300.249,2396.300,3.368,0.0164,0.0169,0.0181,0.005,0.0000,2.9419,-0.0184,0.1040,7,49.2274360,16.5749841,328.534,9,-0.004,14,9,3,0.000,0.00118,0.00001,0.00001,0.0000
312162880,-1300.249,2396.301,3.368,0.0164,0.0169,0.0181,0.005,0.0000,2.9419,-0.0184,0.1039,7,49.2274360,16.5749841,328.534,9,-0.004,14,9,3,0.000,0.00118,0.00001,0.00001,0.0000
312162900,-1300.250,2396.301,3.368,0.0164,0.0169,0.0181,0.005,0.0000,2.9419,-0.0184,0.1038,7,49.2274360,16.5749841,328.534,9,-0.003,14,9,3,0.000,0.00118,0.00001,0.00001,0.0000
312162920,-1300.250,2396.301,3.368,0.0164,0.0169,0.0181,0.005,0.0000,2.9419,-0.0184,0.1038,7,49.2274360,16.5749841,328.534,9,-0.004,14,9,3,0.000,0.00118,0.00001,0.00001,0.0000
312162940,-1300.250,2396.301,3.368,0.0164,0.0169,0.0181,0.005,4.2406,2.9419,-0.0184,0.1039,7,49.2274360,16.5749841,328.534,9,-0.004,14,9,3,0.000,0.00118,0.00001,0.00001,0.0000
312162960,-1300.250,2396.301,3.368,0.0164,0.0169,0.0181,0.005,0.0000,2.9418,-0.0184,0.1040,7,49.2274360,16.5749841,328.534,9,-0.004,14,9,3,0.000,0.00118,0.00001,0.00001,0.0000
312162980,-1300.250,2396.301,3.368,0.0164,0.0169,0.0181,0.005,0.0000,2.9418,-0.0184,0.1041,7,49.2274360,16.5749841,328.534,9,-0.004,14,9,3,0.000,0.00118,0.00001,0.00001,0.0000
312163000,-1300.250,2396.301,3.368,0.0164,0.0169,0.0181,0.005,0.0000,2.9418,-0.0185,0.1041,7,49.2274360,16.5749841,328.534,9,-0.004,14,9,3,0.000,0.00118,0.00001,0.00001,0.0000
312163020,-1300.250,2396.301,3.368,0.0164,0.0169,0.0181,0.005,4.3067,2.9418,-0.0185,0.1040,7,49.2274360,16.5749841,328.534,9,-0.004,14,9,3,0.000,0.00118,0.00001,0.00001,0.0000
312163040,-1300.250,2396.301,3.368,0.0164,0.0169,0.0181,0.005,4.3601,2.9418,-0.0185,0.1039,7,49.2274360,16.5749841,328.534,9,-0.004,14,9,3,0.000,0.00118,0.00001,0.00001,0.0000
312163060,-1300.250,2396.301,3.368,0.0164,0.0169,0.0181,0.006,4.3030,2.9418,-0.0185,0.1040,7,49.2274360,16.5749841,328.534,9,-0.004,14,9,3,0.000,0.00119,0.00001,0.00001,0.0000
312163080,-1300.250,2396.301,3.368,0.0164,0.0169,0.0181,0.005,4.2896,2.9418,-0.0185,0.1041,7,49.2274360,16.5749841,328.534,9,-0.004,14,9,3,0.000,0.00119,0.00001,0.00001,0.0000
312163100,-1300.250,2396.301,3.368,0.0164,0.0169,0.0181,0.005,4.3153,2.9418,-0.0185,0.1041,7,49.2274360,16.5749841,328.534,9,-0.003,14,9,3,0.000,0.00119,0.00001,0.00001,0.0000
312163120,-1300.250,2396.301,3.368,0.0164,0.0169,0.0181,0.005,0.0000,2.9418,-0.0185,0.1041,7,49.2274360,16.5749841,328.534,9,-0.003,14,9,3,0.000,0.00119,0.00001,0.00001,0.0000
312163140,-1300.250,2396.301,3.368,0.0164,0.0169,0.0181,0.005,4.2422,2.9418,-0.0185,0.1041,7,49.2274360,16.5749841,328.534,9,-0.003,14,9,3,0.000,0.00119,0.00001,0.00001,0.0000
312163160,-1300.250,2396.301,3.368,0.0164,0.0169,0.0181,0.005,4.3405,2.9418,-0.0184,0.1040,7,49.2274360,16.5749841,328.534,9,-0.003,14,9,3,0.000,0.00119,0.00001,0.00001,0.0000
312163180,-1300.250,2396.301,3.368,0.0164,0.0169,0.0181,0.005,4.3324,2.9418,-0.0184,0.1040,7,49.2274360,16.5749841,328.534,9,-0.003,14,9,3,0.000,0.00119,0.00001,0.00001,0.0000
312163200,-1300.250,2396.301,3.368,0.0164,0.0169,0.0181,0.006,4.3383,2.9418,-0.0184,0.1039,7,49.2274360,16.5749841,328.534,9,-0.003,14,9,3,0.000,0.00119,0.00001,0.00001,0.0000
312163220,-1300.250,2396.301,3.368,0.0164,0.0169,0.0181,0.005,0.0000,2.9418,-0.0184,0.1039,7,49.2274360,16.5749841,328.534,9,-0.003,14,9,3,0.000,0.00119,0.00001,0.00001,0.0000
312163240,-1300.250,2396.301,3.368,0.0164,0.0169,0.0181,0.005,0.0000,2.9418,-0.0184,0.1037,7,49.2274360,16.5749841,328.534,9,-0.003,14,9,3,0.000,0.00120,0.00001,0.00001,0.0000
312163260,-1300.250,2396.302,3.368,0.0164,0.0169,0.0181,0.005,4.3456,2.9419,-0.0184,0.1036,7,49.2274360,16.5749841,328.534,9,-0.003,14,9,3,0.000,0.00120,0.00001,0.00001,0.0000
312163280,-1300.250,2396.302,3.368,0.0164,0.0169,0.0181,0.006,4.3324,2.9419,-0.0184,0.1037,7,49.2274360,16.5749841,328.534,9,-0.003,14,9,3,0.000,0.00120,0.00001,0.00001,0.0000
312163300,-1300.250,2396.302,3.368,0.0164,0.0169,0.0181,0.005,4.3229,2.9419,-0.0184,0.1039,7,49.2274360,16.5749841,328.534,9,-0.004,14,9,3,0.000,0.00120,0.00001,0.00001,0.0000
312163320,-1300.250,2396.302,3.368,0.0164,0.0169,0.0181,0.005,4.3424,2.9418,-0.0184,0.1040,7,49.2274360,16.5749841,328.534,9,-0.004,14,9,3,0.000,0.00120,0.00001,0.00001,0.0000
312163340,-1300.250,2396.302,3.368,0.0164,0.0169,0.0181,0.005,0.0000,2.9418,-0.0184,0.1039,7,49.2274360,16.5749841,328.534,9,-0.003,14,9,3,0.000,0.00120,0.00001,0.00001,0.0000
312163360,-1300.250,2396.302,3.367,0.0164,0.0169,0.0181,0.005,4.3277,2.9419,-0.0184,0.1037,7,49.2274360,16.5749841,328.534,9,-0.003,14,9,3,0.000,0.00120,0.00001,0.00001,0.0000
312163380,-1300.250,2396.302,3.367,0.0164,0.0169,0.0181,0.005,4.3617,2.9419,-0.0185,0.1035,7,49.2274360,16.5749841,328.534,9,-0.003,14,9,3,0.000,0.00120,0.00001,0.00001,0.0000
312163400,-1300.250,2396.302,3.367,0.0164,0.0169,0.0181,0.005,4.3196,2.9419,-0.0185,0.1035,7,49.2274360,16.5749841,328.533,9,-0.004,14,9,3,0.000,0.00120,0.00001,0.00001,0.0000
312163420,-1300.250,2396.302,3.367,0.0164,0.0169,0.0181,0.005,4.3084,2.9419,-0.0185,0.1036,7,49.2274360,16.5749841,328.534,9,-0.004,14,9,3,0.000,0.00120,0.00001,0.00001,0.0000
312163440,-1300.250,2396.302,3.367,0.0165,0.0169,0.0181,0.005,4.3685,2.9419,-0.0185,0.1038,7,49.2274360,16.5749841,328.534,9,-0.004,14,9,3,0.000,0.00120,0.00001,0.00001,0.0000
312163460,-1300.250,2396.302,3.367,0.0165,0.0169,0.0181,0.005,4.3562,2.9419,-0.0185,0.1038,7,49.2274360,16.5749841,328.534,9,-0.004,14,9,3,0.000,0.00120,0.00001,0.00001,0.0000
312163480,-1300.250,2396.302,3.368,0.0165,0.0169,0.0181,0.005,0.0000,2.9419,-0.0185,0.1037,7,49.2274360,16.5749841,328.534,9,-0.003,14,9,3,0.000,0.00120,0.00001,0.00001,0.0000
312163500,-1300.250,2396.302,3.368,0.0165,0.0169,0.0181,0.006,4.3696,2.9419,-0.0185,0.1034,7,49.2274360,16.5749841,328.534,9,-0.003,14,9,3,0.000,0.00120,0.00001,0.00001,0.0000
312163520,-1300.250,2396.302,3.368,0.0165,0.0169,0.0181,0.006,4.3663,2.9419,-0.0185,0.1033,7,49.2274360,16.5749841,328.534,9,-0.003,14,9,3,0.000,0.00120,0.00001,0.00001,0.0000
312163540,-1300.250,2396.302,3.368,0.0165,0.0169,0.0181,0.006,4.3331,2.9419,-0.0185,0.1035,7,49.2274360,16.5749841,328.534,9,-0.004,14,9,3,0.000,0.00120,0.00001,0.00001,0.0000
312163560,-1300.250,2396.302,3.368,0.0165,0.0169,0.0181,0.006,4.3304,2.9419,-0.0185,0.1037,7,49.2274360,16.5749841,328.534,9,-0.004,14,9,3,0.000,0.00120,0.00001,0.00001,0.0000
312163580,-1300.250,2396.302,3.368,0.0165,0.0169,0.0181,0.005,4.3673,2.9419,-0.0185,0.1038,7,49.2274360,16.5749841,328.534,9,-0.004,14,9,3,0.000,0.00120,0.00001,0.00001,0.0000
312163600,-1300.250,2396.302,3.368,0.0165,0.0169,0.0181,0.005,4.2790,2.9419,-0.0185,0.1036,7,49.2274360,16.5749841,328.534,9,-0.003,14,9,3,0.000,0.00120,0.00001,0.00001,0.0000
312163620,-1300.250,2396.302,3.368,0.0165,0.0169,0.0181,0.005,4.3151,2.9419,-0.0185,0.1034,7,49.2274360,16.5749841,328.534,9,-0.003,14,9,3,0.000,0.00120,0.00001,0.00001,0.0000
312163640,-1300.250,2396.302,3.368,0.0165,0.0169,0.0181,0.006,4.3902,2.9419,-0.0185,0.1033,7,49.2274360,16.5749841,328.534,9,-0.004,14,9,3,0.000,0.00120,0.00001,0.00001,0.0000
312163660,-1300.250,2396.302,3.368,0.0165,0.0169,0.0181,0.006,4.3321,2.9419,-0.0185,0.1035,7,49.2274360,16.5749841,328.534,9,-0.004,14,9,3,0.000,0.00120,0.00001,0.00001,0.0000
312163680,-1300.250,2396.302,3.368,0.0165,0.0169,0.0181,0.006,4.3385,2.9419,-0.0185,0.1038,7,49.2274360,16.5749841,328.534,9,-0.005,14,9,3,0.000,0.00121,0.00001,0.00001,0.0000
312163700,-1300.251,2396.302,3.368,0.0165,0.0169,0.0181,0.006,4.3679,2.9419,-0.0185,0.1040,7,49.2274360,16.5749841,328.535,9,-0.004,14,9,3,0.000,0.00121,0.00001,0.00001,0.0000
312163720,-1300.251,2396.302,3.369,0.0165,0.0169,0.0181,0.005,4.2811,2.9419,-0.0185,0.1040,7,49.2274360,16.5749841,328.535,9,-0.003,14,9,3,0.000,0.00121,0.00001,0.00001,0.0000
312163740,-1300.251,2396.302,3.369,0.0165,0.0169,0.0181,0.006,4.2417,2.9419,-0.0185,0.1038,7,49.2274360,16.5749841,328.535,9,-0.002,14,9,3,0.000,0.00121,0.00001,0.00001,0.0000
312163760,-1300.251,2396.302,3.369,0.0165,0.0169,0.0181,0.006,4.3231,2.9419,-0.0185,0.1036,7,49.2274360,16.5749841,328.535,9,-0.003,14,9,3,0.000,0.00121,0.00001,0.00001,0.0000
312163780,-1300.251,2396.302,3.369,0.0165,0.0169,0.0181,0.006,4.3617,2.9419,-0.0185,0.1036,7,49.2274360,16.5749841,328.535,9,-0.004,14,9,3,0.000,0.00121,0.00001,0.00001,0.0000
312163800,-1300.251,2396.302,3.369,0.0165,0.0169,0.0181,0.007,4.2989,2.9419,-0.0185,0.1038,7,49.2274360,16.5749841,328.535,9,-0.004,14,9,3,0.000,0.00121,0.00001,0.00001,0.0000
312163820,-1300.251,2396.303,3.369,0.0165,0.0169,0.0181,0.006,4.3135,2.9419,-0.0185,0.1041,7,49.2274360,16.5749841,328.535,9,-0.004,14,9,3,0.000,0.00121,0.00001,0.00001,0.0000
312163840,-1300.251,2396.303,3.369,0.0165,0.0169,0.0181,0.005,4.3223,2.9419,-0.0186,0.1042,7,49.2274360,16.5749841,328.535,9,-0.004,14,9,3,0.000,0.00122,0.00001,0.00001,0.0000
312163860,-1300.251,2396.303,3.368,0.0165,0.0169,0.0181,0.005,4.2808,2.9419,-0.0186,0.1041,7,49.2274360,16.5749841,328.535,9,-0.003,14,9,3,0.000,0.00122,0.00001,0.00001,0.0000
312163880,-1300.251,2396.303,3.368,0.0165,0.0169,0.0181,0.005,4.2245,2.9419,-0.0186,0.1039,7,49.2274360,16.5749841,328.534,9,-0.003,14,9,3,0.000,0.00122,0.00001,0.00001,0.0000
312163900,-1300.251,2396.303,3.368,0.0165,0.0169,0.0181,0.006,4.3571,2.9419,-0.0186,0.1037,7,49.2274360,16.5749841,328.534,9,-0.003,14,9,3,0.000,0.00122,0.00001,0.00001,0.0000
312163920,-1300.250,2396.303,3.368,0.0165,0.0169,0.0181,0.006,4.2956,2.9419,-0.0186,0.1037,7,49.2274360,16.5749841,328.534,9,-0.004,14,9,3,0.000,0.00122,0.00001,0.00001,0.0000
312163940,-1300.250,2396.303,3.368,0.0165,0.0169,0.0181,0.006,4.2633,2.9419,-0.0186,0.1039,7,49.2274360,16.5749841,328.534,9,-0.004,14,9,3,0.000,0.00122,0.00001,0.00001,0.0000
312163960,-1300.250,2396.303,3.368,0.0165,0.0169,0.0181,0.006,4.3404,2.9419,-0.0186,0.1041,7,49.2274360,16.5749841,328.534,9,-0.004,14,9,3,0.000,0.00122,0.00001,0.00001,0.0000
312163980,-1300.250,2396.303,3.368,0.0165,0.0169,0.0181,0.005,4.2584,2.9419,-0.0186,0.1041,7,49.2274360,16.5749841,328.534,9,-0.003,14,9,3,0.000,0.00122,0.00001,0.00001,0.0000
312164000,-1300.250,2396.303,3.367,0.0165,0.0169,0.0181,0.005,0.0000,2.9419,-0.0185,0.1039,7,49.2274360,16.5749841,328.534,9,-0.003,14,9,3,0.000,0.00122,0.00001,0.00001,0.0000
312164020,-1300.251,2396.303,3.368,0.0165,0.0169,0.0181,0.006,4.2863,2.9419,-0.0185,0.1036,7,49.2274360,16.5749841,328.534,9,-0.003,14,9,3,0.000,0.00122,0.00001,0.00001,0.0000
312164040,-1300.251,2396.303,3.368,0.0165,0.0169,0.0181,0.006,4.3674,2.9419,-0.0185,0.1035,7,49.2274360,16.5749841,328.534,9,-0.004,14,9,3,0.000,0.00122,0.00001,0.00001,0.0000
312164060,-1300.251,2396.304,3.368,0.0165,0.0169,0.0181,0.007,4.3226,2.9419,-0.0185,0.1037,7,49.2274360,16.5749841,328.534,9,-0.004,14,9,3,0.000,0.00123,0.00001,0.00001,0.0000
312164080,-1300.251,2396.304,3.368,0.0165,0.0169,0.0181,0.006,4.3118,2.9419,-0.0185,0.1039,7,49.2274360,16.5749841,328.535,9,-0.004,14,9,3,0.000,0.00123,0.00001,0.00001,0.0000
312164100,-1300.251,2396.304,3.369,0.0165,0.0169,0.0181,0.006,4.3879,2.9419,-0.0185,0.1039,7,49.2274360,16.5749841,328.535,9,-0.003,14,9,3,0.000,0.00123,0.00001,0.00001,0.0000
312164120,-1300.251,2396.304,3.369,0.0165,0.0169,0.0181,0.006,4.3512,2.9419,-0.0185,0.1037,7,49.2274360,16.5749841,328.535,9,-0.003,14,9,3,0.000,0.00123,0.00001,0.00001,0.0000
312164140,-1300.251,2396.304,3.369,0.0165,0.0169,0.0181,0.007,4.3564,2.9419,-0.0185,0.1036,7,49.2274360,16.5749841,328.535,9,-0.003,14,9,3,0.000,0.00123,0.00001,0.00001,0.0000
312164160,-1300.252,2396.304,3.369,0.0165,0.0169,0.0181,0.007,4.4365,2.9419,-0.0185,0.1036,7,49.2274360,16.5749841,328.535,9,-0.003,14,9,3,0.000,0.00123,0.00001,0.00001,0.0000
312164180,-1300.252,2396.304,3.370,0.0165,0.0169,0.0181,0.007,4.4276,2.9419,-0.0185,0.1038,7,49.2274360,16.5749841,328.536,9,-0.004,14,9,3,0.000,0.00123,0.00001,0.00001,0.0000
312164200,-1300.252,2396.304,3.370,0.0165,0.0169,0.0181,0.006,4.3532,2.9419,-0.0185,0.1040,7,49.2274360,16.5749841,328.536,9,-0.003,14,9,3,0.000,0.00123,0.00001,0.00001,0.0000
312164220,-1300.252,2396.304,3.370,0.0165,0.0169,0.0181,0.006,4.4139,2.9419,-0.0185,0.1040,7,49.2274361,16.5749841,328.536,9,-0.003,14,9,3,0.000,0.00123,0.00001,0.00001,0.0000
312164240,-1300.252,2396.305,3.370,0.0165,0.0169,0.0181,0.006,4.4459,2.9419,-0.0185,0.1037,7,49.2274361,16.5749841,328.536,9,-0.002,14,9,3,0.000,0.00123,0.00001,0.00001,0.0000
312164260,-1300.252,2396.305,3.370,0.0165,0.0169,0.0181,0.006,4.4092,2.9419,-0.0185,0.1034,7,49.2274361,16.5749841,328.536,9,-0.002,14,9,3,0.000,0.00123,0.00001,0.00001,0.0000
312164280,-1300.252,2396.305,3.371,0.0165,0.0169,0.0181,0.007,4.4430,2.9419,-0.0185,0.1035,7,49.2274361,16.5749841,328.537,9,-0.003,14,9,3,0.000,0.00123,0.00001,0.00001,0.0000
312164300,-1300.252,2396.305,3.371,0.0165,0.0169,0.0181,0.007,4.5070,2.9419,-0.0185,0.1037,7,49.2274361,16.5749841,328.537,9,-0.004,14,9,3,0.000,0.00123,0.00001,0.00001,0.0000
312164320,-1300.252,2396.305,3.371,0.0165,0.0169,0.0181,0.006,4.4541,2.9419,-0.0185,0.1038,7,49.2274361,16.5749841,328.537,9,-0.003,14,9,3,0.000,0.00123,0.00001,0.00001,0.0000
312164340,-1300.252,2396.305,3.371,0.0165,0.0169,0.0181,0.006,4.3829,2.9419,-0.0185,0.1038,7,49.2274361,16.5749841,328.537,9,-0.002,14,9,3,0.000,0.00123,0.00001,0.00001,0.0000
312164360,-1300.252,2396.305,3.371,0.0165,0.0169,0.0181,0.006,4.4635,2.9419,-0.0185,0.1037,7,49.2274361,16.5749841,328.537,9,-0.002,14,9,3,0.000,0.00123,0.00001,0.00001,0.0000
312164380,-1300.252,2396.306,3.371,0.0165,0.0169,0.0181,0.006,4.4619,2.9419,-0.0185,0.1036,7,49.2274361,16.5749841,328.537,9,-0.002,14,9,3,0.000,0.00123,0.00001,0.00001,0.0000
312164400,-1300.252,2396.306,3.372,0.0165,0.0169,0.0181,0.007,4.4461,2.9419,-0.0185,0.1036,7,49.2274361,16.5749841,328.538,9,-0.003,14,9,3,0.000,0.00123,0.00001,0.00001,0.0000
312164420,-1300.252,2396.306,3.372,0.0165,0.0169,0.0181,0.006,4.4395,2.9418,-0.0185,0.1037,7,49.2274361,16.5749841,328.538,9,-0.003,14,9,3,0.000,0.00123,0.00001,0.00001,0.0000
312164440,-1300.252,2396.306,3.372,0.0165,0.0169,0.0181,0.006,4.4448,2.9418,-0.0185,0.1038,7,49.2274361,16.5749841,328.538,9,-0.003,14,9,3,0.000,0.00124,0.00001,0.00001,0.0000
312164460,-1300.252,2396.306,3.372,0.0165,0.0169,0.0181,0.006,4.4583,2.9418,-0.0185,0.1038,7,49.2274361,16.5749841,328.538,9,-0.003,14,9,3,0.000,0.00124,0.00001,0.00001,0.0000
312164480,-1300.252,2396.306,3.372,0.0165,0.0169,0.0181,0.006,4.4292,2.9418,-0.0185,0.1037,7,49.2274361,16.5749841,328.538,9,-0.002,14,9,3,0.000,0.00124,0.00001,0.00001,0.0000
312164500,-1300.252,2396.306,3.372,0.0165,0.0169,0.0181,0.006,4.4652,2.9418,-0.0185,0.1036,7,49.2274361,16.5749841,328.538,9,-0.002,14,9,3,0.000,0.00124,0.00001,0.00001,0.0000
312164520,-1300.252,2396.306,3.372,0.0165,0.0169,0.0181,0.006,4.4488,2.9418,-0.0185,0.1037,7,49.2274361,16.5749841,328.538,9,-0.003,14,9,3,0.000,0.00124,0.00001,0.00001,0.0000
312164540,-1300.252,2396.306,3.372,0.0165,0.0169,0.0181,0.006,4.4326,2.9418,-0.0185,0.1038,7,49.2274361,16.5749841,328.539,9,-0.003,14,9,3,0.000,0.00124,0.00001,0.00001,0.0000
312164560,-1300.252,2396.306,3.373,0.0165,0.0169,0.0181,0.006,4.4326,2.9418,-0.0185,0.1040,7,49.2274361,16.5749841,328.539,9,-0.003,14,9,3,0.000,0.00124,0.00001,0.00001,0.0000
312164580,-1300.252,2396.306,3.373,0.0165,0.0169,0.0181,0.006,4.4805,2.9418,-0.0185,0.1040,7,49.2274361,16.5749841,328.539,9,-0.002,14,9,3,0.000,0.00124,0.00001,0.00001,0.0000
312164600,-1300.252,2396.306,3.373,0.0165,0.0169,0.0181,0.006,4.4205,2.9418,-0.0185,0.1039,7,49.2274361,16.5749841,328.539,9,-0.002,14,9,3,0.000,0.00124,0.00001,0.00001,0.0000
312164620,-1300.252,2396.306,3.373,0.0165,0.0169,0.0181,0.006,4.4151,2.9418,-0.0185,0.1038,7,49.2274361,16.5749841,328.539,9,-0.002,14,9,3,0.000,0.00124,0.00001,0.00001,0.0000
312164640,-1300.252,2396.307,3.373,0.0165,0.0169,0.0181,0.006,4.4947,2.9418,-0.0185,0.1037,7,49.2274361,16.5749841,328.539,9,-0.002,14,9,3,0.000,0.00124,0.00001,0.00001,0.0000
312164660,-1300.252,2396.307,3.374,0.0165,0.0169,0.0181,0.006,4.4346,2.9418,-0.0185,0.1037,7,49.2274361,16.5749841,328.540,9,-0.002,14,9,3,0.000,0.00124,0.00001,0.00001,0.0000
312164680,-1300.252,2396.307,3.374,0.0165,0.0169,0.0181,0.006,4.4207,2.9418,-0.0185,0.1037,7,49.2274361,16.5749841,328.540,9,-0.002,14,9,3,0.000,0.00125,0.00001,0.00001,0.0000
312164700,-1300.252,2396.307,3.374,0.0165,0.0169,0.0181,0.006,4.4480,2.9418,-0.0185,0.1038,7,49.2274361,16.5749841,328.540,9,-0.002,14,9,3,0.000,0.00125,0.00001,0.00001,0.0000
312164720,-1300.252,2396.307,3.374,0.0165,0.0169,0.0181,0.006,4.4221,2.9418,-0.0185,0.1038,7,49.2274361,16.5749841,328.541,9,-0.002,14,9,3,0.000,0.00125,0.00001,0.00001,0.0000
312164740,-1300.252,2396.307,3.375,0.0165,0.0169,0.0181,0.006,4.3946,2.9417,-0.0185,0.1039,7,49.2274361,16.5749841,328.541,9,-0.003,14,9,3,0.000,0.00125,0.00001,0.00001,0.0000
312164760,-1300.253,2396.307,3.375,0.0165,0.0169,0.0181,0.006,4.4605,2.9417,-0.0185,0.1039,7,49.2274361,16.5749841,328.541,9,-0.002,14,9,3,0.000,0.00125,0.00001,0.00001,0.0000
312164780,-1300.253,2396.307,3.375,0.0165,0.0169,0.0181,0.006,4.5071,2.9417,-0.0185,0.1038,7,49.2274361,16.5749841,328.541,9,-0.002,14,9,3,0.000,0.00125,0.00001,0.00001,0.0000
312164800,-1300.253,2396.307,3.375,0.0165,0.0169,0.0181,0.006,4.4337,2.9418,-0.0186,0.1037,7,49.2274361,16.5749841,328.541,9,-0.002,14,9,3,0.000,0.00125,0.00001,0.00001,0.0000
312164820,-1300.253,2396.307,3.375,0.0165,0.0169,0.0181,0.006,4.4152,2.9418,-0.0186,0.1037,7,49.2274361,16.5749841,328.541,9,-0.002,14,9,3,0.000,0.00125,0.00001,0.00001,0.0000
312164840,-1300.253,2396.306,3.375,0.0165,0.0169,0.0181,0.006,4.4562,2.9418,-0.0185,0.1039,7,49.2274361,16.5749841,328.541,9,-0.002,14,9,3,0.000,0.00125,0.00001,0.00001,0.0000
312164860,-1300.253,2396.306,3.374,0.0165,0.0169,0.0181,0.006,4.3818,2.9418,-0.0185,0.1040,7,49.2274361,16.5749841,328.540,9,-0.002,14,9,3,0.000,0.00125,0.00001,0.00001,0.0000
312164880,-1300.253,2396.306,3.374,0.0165,0.0169,0.0181,0.005,4.2875,2.9418,-0.0185,0.1040,7,49.2274361,16.5749841,328.540,9,-0.002,14,9,3,0.000,0.00125,0.00001,0.00001,0.0000
312164900,-1300.253,2396.306,3.374,0.0165,0.0169,0.0181,0.006,4.3514,2.9418,-0.0185,0.1038,7,49.2274361,16.5749841,328.540,9,-0.001,14,9,3,0.000,0.00125,0.00001,0.00001,0.0000
312164920,-1300.253,2396.306,3.373,0.0165,0.0169,0.0181,0.006,4.3308,2.9418,-0.0185,0.1037,7,49.2274361,16.5749841,328.539,9,-0.002,14,9,3,0.000,0.00125,0.00001,0.00001,0.0000
312164940,-1300.253,2396.305,3.373,0.0165,0.0169,0.0181,0.006,4.2437,2.9418,-0.0185,0.1037,7,49.2274361,16.5749841,328.539,9,-0.002,14,9,3,0.000,0.00125,0.00001,0.00001,0.0000
312164960,-1300.253,2396.305,3.373,0.0165,0.0169,0.0181,0.006,4.2690,2.9418,-0.0185,0.1038,7,49.2274361,16.5749841,328.539,9,-0.003,14,9,3,0.000,0.00125,0.00001,0.00001,0.0000
312164980,-1300.253,2396.305,3.372,0.0165,0.0169,0.0181,0.005,4.2661,2.9418,-0.0185,0.1040,7,49.2274361,16.5749841,328.538,9,-0.002,14,9,3,0.000,0.00125,0.00001,0.00001,0.0000
